Country,CountryCode,Region,City,Latitude,Longitude,ZIP,Timezone,Manufacturer,URL
Hungary,HU,Hajdu-Bihar,Berettyoujfalu,47.216670,21.550000,4103,+01:00,Hi3516,http://80.98.62.9:8080/
Brazil,BR,Rio De Janeiro,Rio De Janeiro,-22.902780,-43.207500,24000-000,-02:00,Hi3516,http://179.197.84.9:8081/
"Taiwan, Province Of",TW,Taipei,Taipei,25.047760,121.531850,10048,+08:00,Hi3516,http://125.228.58.8:80/
Malta,MT,Santa Venera,Santa Venera,35.890830,14.474170,SVR 9034,+01:00,Defeway,http://92.251.66.7:60001/
Chile,CL,Maule,Curico,-34.983330,-71.233330,3340000,-04:00,Defeway,http://190.162.169.5:60001/
United States,US,Pennsylvania,Philadelphia,39.952340,-75.163790,19019,-05:00,Defeway,http://73.233.96.9:60001/
Spain,ES,Catalonia,Sant Feliu De Guixol,41.783330,3.033330,17220,+01:00,Mobotix,http://185.10.80.33:8082/
Japan,JP,Tokyo,Tokyo,35.689506,139.691700,214-0021,+09:00,PanasonicHD,http://202.245.13.81:80/
"Taiwan, Province Of",TW,T'Ai-Wan,Taitung City,22.758300,121.144400,950,+08:00,Hi3516,http://122.117.253.100:80/
Russian Federation,RU,Krasnodar,Sochi,43.599170,39.725690,354065,+03:00,Axis,http://158.58.130.148:80/
Japan,JP,Aichi,Inazawa,35.250000,136.783000,490-1322,+09:00,Canon,http://120.51.16.164:80/
Ukraine,UA,Kharkivs'Ka Oblast',Kharkiv,49.980810,36.252720,-,+03:00,NetCam,http://178.151.205.191:81/
Austria,AT,Salzburg,Salzburg,47.799410,13.043990,5020,+01:00,Mobotix,http://91.133.85.170:8090/
Italy,IT,Emilia-Romagna,Imola,44.352270,11.715820,40026,+01:00,Vivotek,http://77.89.48.19:8000/
Netherlands,NL,Zeeland,Middelburg,51.500000,3.613890,4338,+01:00,Axis,http://213.34.225.97:8080/
United States,US,California,Rancho Cucamonga,34.106400,-117.593110,91701,-08:00,Axis,http://166.165.35.32:80/
Japan,JP,Tokyo,Tokyo,35.689506,139.691700,214-0021,+09:00,Panasonic,http://58.94.98.44:80/
Macao,MO,Macau,Macau,22.200560,113.546110,-,+08:00,PanasonicHD,http://202.175.114.212:80/
Japan,JP,Nagano,Nagano,36.633000,138.183000,380-0838,+09:00,PanasonicHD,http://220.254.136.170:80/
"Taiwan, Province Of",TW,T'Ai-Wan,Taipei,25.047760,121.531850,100,+08:00,ChannelVision,http://117.56.173.37:83/
Japan,JP,Tokyo,Tokyo,35.689506,139.691700,214-0021,+09:00,Panasonic,http://61.194.31.178:80/
Romania,RO,Bucuresti,Bucharest,44.432250,26.106260,060222,+02:00,Mobotix,http://86.34.190.86:88/
Netherlands,NL,Zuid-Holland,Voorburg,52.074170,4.359720,2275,+01:00,Axis,http://82.161.213.116:50000/
Belgium,BE,Antwerpen,Antwerpen,51.219890,4.403460,2660,+01:00,Vivotek,http://81.243.252.167:8084/
Japan,JP,Saitama,Soka,35.833000,139.800000,340-0002,+09:00,Axis,http://60.45.181.202:8080/
Switzerland,CH,Solothurn,Himmelried,47.421110,7.596590,4204,+01:00,Axis,http://213.193.89.202:80/
Japan,JP,Tokyo,Meguro-Ku,35.633000,139.683000,153-0053,+09:00,Axis,http://182.23.220.250:5000/
Spain,ES,Catalonia,Barcelona,41.388790,2.158990,08036,+01:00,Mobotix,http://80.32.125.254:8080/
Iceland,IS,Hofuoborgarsvaoio,Reykjavik,64.135480,-21.895410,150,+00:00,Axis,http://157.157.138.235:80/
Poland,PL,Slaskie,Gora,49.979710,19.104710,32-622,+01:00,Vivotek,http://83.3.56.24:5000/
France,FR,Ile-De-France,Paris,48.853410,2.348800,75915,+01:00,Axis,http://217.128.254.187:8083/
Germany,DE,Bayern,Coburg,50.259370,10.963840,96450,+01:00,Mobotix,http://217.24.53.18:80/
Japan,JP,Tokyo,Tachikawa,35.683000,139.417000,190-0012,+09:00,Panasonic,http://122.249.89.26:60001/
Germany,DE,Nordrhein-Westfalen,Bonn,50.734380,7.095480,53115,+01:00,Mobotix,http://131.220.147.9:80/
Japan,JP,Nagano,Nagano,36.633000,138.183000,380-0838,+09:00,PanasonicHD,http://220.254.136.178:80/
Germany,DE,Baden-Wurttemberg,Plieningen,48.700800,9.216640,70599,+01:00,Axis,http://94.124.210.59:8083/
Italy,IT,Emilia-Romagna,Cesena,44.139100,12.243150,47023,+01:00,Mobotix,http://185.97.122.128:80/
"Taiwan, Province Of",TW,T'Ai-Pei,Banqiao,25.014270,121.467190,220,+08:00,Hi3516,http://219.85.82.178:80/
United States,US,Florida,Bunche Park,25.920650,-80.236990,33054,-05:00,Axis,http://50.248.1.46:8000/
Japan,JP,Osaka,Osaka,34.693890,135.502220,541-0041,+09:00,Axis,http://153.156.224.16:80/
Germany,DE,Bayern,Wiesenhofen,49.043160,11.412990,92339,+01:00,Axis,http://185.18.130.194:8001/
Italy,IT,Sardegna,Maracalagonis,39.287220,9.227500,09040,+01:00,Sony,http://79.8.83.39:80/
Switzerland,CH,Aargau,Aarau,47.392540,8.044220,5001,+01:00,PanasonicHD,http://46.14.28.30:80/
Romania,RO,Bucuresti,Bucharest,44.432250,26.106260,060222,+02:00,Mobotix,http://37.156.71.253:80/
Czech Republic,CZ,Olomoucky Kraj,Jesenik,50.229370,17.204640,790 01,+01:00,Vivotek,http://31.132.19.90:8080/
Japan,JP,Tokyo,Meguro-Ku,35.633000,139.683000,153-0053,+09:00,Panasonic,http://115.179.100.76:8080/
Russian Federation,RU,Moscow City,Moscow,55.752220,37.615560,101990,+04:00,Axis,http://91.192.168.58:8080/
Romania,RO,Cluj,Salciua De Sus,46.400000,23.416670,247342,+02:00,Mobotix,http://84.232.147.36:8080/
Japan,JP,Nagano,Iiyama,36.850000,138.367000,389-2254,+09:00,PanasonicHD,http://220.254.144.230:50000/
"Taiwan, Province Of",TW,T'Ai-Pei,Banqiao,25.014270,121.467190,220,+08:00,Hi3516,http://122.116.151.30:80/
Germany,DE,Niedersachsen,Wilhelmshaven,53.529980,8.112530,26382,+01:00,Mobotix,http://62.157.185.131:80/
New Zealand,NZ,Wellington,Porirua,-41.133330,174.850000,5240,+13:00,PanasonicHD,http://202.56.51.237:8888/
Netherlands,NL,Groningen,Leek,53.162500,6.376390,9351,+01:00,WebcamXP,http://62.131.207.209:8080/
United Kingdom,GB,England,Yarm,54.503640,-1.357930,UB11 1FF,+00:00,Axis,http://89.145.222.232:80/
United States,US,New York,New York City,40.714080,-74.006280,10081,-04:00,Sony,http://206.71.252.171:80/
United States,US,Florida,Orlando,28.538340,-81.379240,32801,-05:00,Axis,http://97.68.104.34:80/
France,FR,Ile-De-France,Paris,48.853410,2.348800,75915,+01:00,Axis,http://80.12.90.221:8082/
Denmark,DK,Midtjylland,Tranbjerg,56.090100,10.119370,8310,+01:00,Axis,http://62.242.189.219:80/
Viet Nam,VN,Ha Noi,Ha Dong,20.972500,105.777220,000000,+07:00,PanasonicHD,http://14.160.87.118:82/
Germany,DE,Rheinland-Pfalz,Minden,49.833330,6.466670,32423,+01:00,Mobotix,http://85.220.149.7:80/
Japan,JP,Tokyo,Tokyo,35.689506,139.691700,214-0021,+09:00,Canon,http://60.36.188.202:80/
Ukraine,UA,L'Vivs'Ka Oblast',L'Viv,49.838260,24.023240,39721,+02:00,Axis,http://194.44.38.196:8083/
Italy,IT,Emilia-Romagna,Imola,44.352270,11.715820,40026,+01:00,Mobotix,http://77.89.48.24:89/
Romania,RO,Bacau,Bacau,46.566670,26.900000,600550,+02:00,Mobotix,http://188.26.117.165:80/
France,FR,Ile-De-France,Conflans-Sainte-Hono,49.001580,2.096940,78709,+01:00,Axis,http://80.13.120.225:8082/
United States,US,Texas,Houston,29.763280,-95.363270,77001,-06:00,Vivotek,http://50.194.163.243:8080/
New Zealand,NZ,Auckland,Manukau City,-36.992820,174.879860,2241,+13:00,Android-IPWebcam,http://210.54.39.237:8888/
Japan,JP,Tokyo,Tokyo,35.689506,139.691700,214-0021,+09:00,Streamer,http://27.121.187.167:8080/
Hungary,HU,Pest,Budaors,47.461810,18.958450,2040,+01:00,WebcamXP,http://79.120.134.229:8080/
Japan,JP,Okayama,Tsuyama,35.069440,134.004440,709-3951,+09:00,Panasonic,http://202.142.10.11:80/
Japan,JP,Tokyo,Tokyo,35.689506,139.691700,214-0021,+09:00,Canon,http://125.206.238.163:80/
Brazil,BR,Sao Paulo,Sao Paulo,-23.547500,-46.636110,01000-00,-03:00,Axis,http://191.241.235.43:80/
"Taiwan, Province Of",TW,T'Ai-Wan,Douliu,23.709440,120.543330,640,+08:00,Sony,http://118.163.172.202:80/
Poland,PL,Podlaskie,Bialystok,53.133330,23.150000,15-879,+01:00,Hi3516,http://85.193.230.144:81/
Spain,ES,Canarias,La Laguna,28.485300,-16.320140,38200,+01:00,Axis,http://161.72.22.244:80/
Japan,JP,Saitama,Yoshikawa,35.887780,139.844440,342-0016,+09:00,PanasonicHD,http://118.241.80.172:50001/
France,FR,Provence-Alpes-Cote,Marseille,43.296950,5.381070,13942,+01:00,Panasonic,http://80.15.116.66:86/
"Taiwan, Province Of",TW,T'Ai-Wan,Taoyuan City,24.993680,121.296960,330,+08:00,ChannelVision,http://220.128.115.31:8080/
Japan,JP,Ibaraki,Mito,36.367000,140.467000,311-4165,+09:00,Mobotix,http://153.142.212.238:8081/
Japan,JP,Aichi,Kasugai,35.247780,136.972220,486-0933,+09:00,PanasonicHD,http://183.77.121.171:8081/
Germany,DE,Nordrhein-Westfalen,Garath,51.140180,6.905340,40789,+01:00,Mobotix,http://87.138.157.245:80/
Russian Federation,RU,Saint Petersburg Cit,Metallostroy,59.800830,30.547780,196641,+03:00,Axis,http://94.72.9.182:80/
Japan,JP,Wakayama,Tanabe,33.733000,135.383000,646-0021,+09:00,Panasonic,http://218.45.5.59:80/
Japan,JP,Tokyo,Machida,35.548669,139.446639,194-0211,+09:00,Mobotix,http://221.189.0.181:80/
Japan,JP,Gumma,Takasaki,36.333330,139.016670,370-0811,+09:00,Mobotix,http://153.156.16.106:8081/
Israel,IL,Tel Aviv,Herzliyya,32.165830,34.836670,-,+02:00,Axis,http://31.168.150.154:82/
Japan,JP,Tokyo,Tokyo,35.689506,139.691700,214-0021,+09:00,PanasonicHD,http://218.45.173.232:8000/
United States,US,New Jersey,Maywood,40.902600,-74.061810,07607,-05:00,Axis,http://166.159.102.252:80/
United States,US,Illinois,Chicago,41.850030,-87.650050,60290,-06:00,Axis,http://40.141.224.130:8090/
Japan,JP,Tokyo,Tokyo,35.689506,139.691700,214-0021,+09:00,Axis,http://124.219.173.212:80/
United States,US,California,San Diego,32.715330,-117.157260,92101,-08:00,Axis,http://72.132.255.68:80/
United States,US,New York,Woodhaven,40.693390,-73.852670,11421,-05:00,Axis,http://24.43.239.50:80/
United States,US,Oklahoma,Tulsa,36.153980,-95.992780,74101,-06:00,Axis,http://38.81.159.248:80/
Germany,DE,Nordrhein-Westfalen,Dortmund,51.514940,7.466000,44357,+01:00,Axis,http://87.139.9.247:80/
Japan,JP,Tokyo,Tokyo,35.689506,139.691700,214-0021,+09:00,Canon,http://61.206.118.186:80/
Russian Federation,RU,Saint Petersburg Cit,Saint Petersburg,59.894440,30.264170,190990,+03:00,Axis,http://109.236.111.203:80/
United States,US,Illinois,Chicago,41.850030,-87.650050,60290,-06:00,Sony,http://75.150.88.41:80/
Japan,JP,Osaka,Osaka,34.693890,135.502220,541-0041,+09:00,Mobotix,http://153.156.235.87:80/
France,FR,Nord-Pas-De-Calais,Roubaix,50.694210,3.174560,59100,+01:00,Axis,http://109.190.32.149:82/
Denmark,DK,Syddanmark,Sonderborg,54.909260,9.807370,6400,+01:00,Vivotek,http://95.154.17.144:8000/
Switzerland,CH,Zurich,Zurich,47.366670,8.550000,6928,+01:00,Mobotix,http://77.59.194.178:80/
Italy,IT,Friuli-Venezia Giuli,Trieste,45.648610,13.780000,34127,+01:00,Mobotix,http://140.105.156.14:80/
Japan,JP,Fukushima,Kitakata,37.650000,139.867000,966-0819,+09:00,PanasonicHD,http://116.58.170.205:5000/
Japan,JP,Tokyo,Tokyo,35.689506,139.691700,214-0021,+09:00,PanasonicHD,http://118.21.55.237:50001/
Japan,JP,Hokkaido,Sapporo,43.067000,141.350000,988-0807,+09:00,Mobotix,http://153.156.1.176:8082/
United States,US,California,Los Angeles,34.052230,-118.243680,90001,-08:00,Axis,http://38.140.162.214:80/
Japan,JP,Wakayama,Tanabe,33.733000,135.383000,646-0021,+09:00,Panasonic,http://218.45.5.57:80/
Norway,NO,More Og Romsdal,Kristiansund,63.110450,7.727950,6517,+01:00,Axis,http://85.93.233.159:8080/
Spain,ES,Islas Baleares,Palma,39.569390,2.650240,07001,+01:00,Axis,http://83.56.31.69:80/
France,FR,Languedoc-Roussillon,Montpellier,43.610920,3.877230,34967,+01:00,Vivotek,http://193.248.135.223:80/
United States,US,New Hampshire,Manchester,42.991246,-71.466563,03101,-05:00,Axis,http://64.223.134.174:80/
"Taiwan, Province Of",TW,T'Ai-Wan,Taoyuan City,24.993680,121.296960,330,+08:00,Axis,http://61.220.233.221:80/
Switzerland,CH,Valais,Sierre,46.291920,7.535590,3960,+01:00,Mobotix,http://213.221.142.195:8888/
Japan,JP,Tokyo,Tokyo,35.689506,139.691700,214-0021,+09:00,Canon,http://202.213.110.83:80/
United States,US,Hawaii,Kula,20.792220,-156.326940,96790,-10:00,Axis,http://132.160.98.215:80/
France,FR,Provence-Alpes-Cote,Cannes,43.551350,7.012750,06414,+01:00,Bosch,http://80.13.84.173:80/
Russian Federation,RU,Primor'Ye,Vladivostok,43.105620,131.873530,690092,+09:00,Mobotix,http://95.154.104.187:80/
Norway,NO,Oslo,Oslo,59.912730,10.746090,0212,+01:00,Axis,http://193.213.211.188:80/
Romania,RO,Iasi,Iasi,47.166670,27.600000,707047,+02:00,Mobotix,http://82.208.151.106:80/
Germany,DE,Nordrhein-Westfalen,Koeln,50.933330,6.950000,50829,+01:00,Mobotix,http://92.198.46.170:80/
Japan,JP,Kumamoto,Kumamoto,32.783000,130.733000,862-0953,+09:00,Mobotix,http://210.226.45.57:8081/
Japan,JP,Tokyo,Shibuya-Ku,35.664036,139.698211,150-0041,+09:00,Sony,http://219.167.248.78:80/
Japan,JP,Tokyo,Tokyo,35.689506,139.691700,214-0021,+09:00,Panasonic,http://219.127.113.142:80/
"Taiwan, Province Of",TW,T'Ai-Wan,Pingtung,22.671350,120.488140,900,+08:00,Hi3516,http://180.177.186.212:80/
Japan,JP,Kumamoto,Kumamoto,32.783000,130.733000,862-0953,+09:00,Mobotix,http://210.226.45.57:8082/
Finland,FI,Southern Ostrobothni,Lahti,63.216670,22.850000,15200,+02:00,Axis,http://62.165.140.170:80/
Switzerland,CH,Vaud,Lausanne,46.516000,6.632820,1002,+01:00,Mobotix,http://213.3.59.218:81/
Ireland,IE,Dublin,Tallaght,53.285900,-6.373440,D20,+00:00,Bosch,http://83.70.178.126:80/
United States,US,Oregon,Eugene,44.058265,-123.187866,97402,-08:00,Sony-CS3,http://208.85.232.166:80/
Austria,AT,Steiermark,Graz,47.066670,15.450000,8074,+01:00,Axis,http://84.115.191.3:80/
"Korea, Republic Of",KR,Ch'Ungch'Ong-Namdo,Cheonan,36.816667,127.166667,330-952,+09:00,Hi3516,http://220.89.226.102:8000/
Brazil,BR,Sao Paulo,Campinas,-22.905560,-47.060830,13000-00,-03:00,Axis,http://143.106.161.110:80/
Serbia,RS,Vojvodina,Novi Pazar,43.136670,20.512220,-,+02:00,Axis,http://93.87.72.254:8090/
Ukraine,UA,L'Vivs'Ka Oblast',L'Viv,49.838260,24.023240,39721,+02:00,WebcamXP,http://82.207.41.104:8080/
United Kingdom,GB,England,Arnold,53.000000,-1.133330,WD3 1JS,+00:00,Axis,http://81.187.169.212:80/
Japan,JP,Osaka,Osaka,34.693890,135.502220,541-0041,+09:00,PanasonicHD,http://59.190.191.178:50000/
Germany,DE,Niedersachsen,Ochtmissen,53.275970,10.388310,21357,+01:00,Mobotix,http://212.68.79.187:80/
Japan,JP,Tottori,Tottori,35.500000,134.233000,680-0805,+09:00,PanasonicHD,http://210.253.224.14:8000/
Spain,ES,Aragon,Zaragoza,41.656060,-0.877340,50190,+01:00,Axis,http://89.29.205.1:5000/
Japan,JP,Niigata,Niigata,37.916110,139.036390,950-0965,+09:00,Mobotix,http://153.142.221.5:8081/
Japan,JP,Shiga,Otsu,35.017000,135.850000,520-0003,+09:00,Canon,http://125.199.232.5:8080/
United States,US,Oregon,Eugene,44.036082,-123.052429,97403,-08:00,Axis,http://128.223.164.214:80/
Israel,IL,Tel Aviv,Tel Aviv,32.080880,34.780570,-,+02:00,Axis,http://82.80.63.83:80/
Bangladesh,BD,Dhaka,Dhaka,23.710400,90.407440,1312,+06:00,Linksys,http://120.50.0.26:80/
United States,US,New Jersey,Mount Laurel,39.947820,-74.911680,08054,-05:00,Axis,http://96.91.239.26:1024/
Japan,JP,Saga,Karatsu,33.450000,129.967000,847-0841,+09:00,Canon,http://61.7.34.24:80/
Germany,DE,Saarland,Saarbrucken,49.235400,6.981650,66115,+01:00,Mobotix,http://212.88.135.186:8081/
"Taiwan, Province Of",TW,T'Ai-Wan,Taichung,24.146900,120.683900,400,+08:00,Hi3516,http://59.126.217.35:80/
Netherlands,NL,Utrecht,Vianen,51.992500,5.091670,5434,+01:00,Axis,http://84.82.29.229:8080/
Netherlands,NL,Utrecht,Leusden,52.132500,5.431940,3834,+01:00,WebcamXP,http://81.205.127.187:8080/
United States,US,Minnesota,Minneapolis,44.980900,-93.226300,55414,-06:00,Axis,http://128.101.85.194:80/
United Kingdom,GB,England,Arnold,53.000000,-1.133330,WD3 1JS,+00:00,Axis,http://81.187.169.213:80/
United States,US,California,Fullerton,33.885970,-117.894540,92831,-08:00,PanasonicHD,http://137.151.186.180:80/
Estonia,EE,Harjumaa,Tallinn,59.436960,24.753530,15169,+02:00,Mobotix,http://213.184.45.236:80/
Japan,JP,Saitama,Saitama,35.867000,139.650000,337-0042,+09:00,Mobotix,http://153.142.232.244:8083/
Japan,JP,Osaka,Osaka,34.693890,135.502220,541-0041,+09:00,Mobotix,http://153.156.255.7:8081/
Netherlands,NL,Zuid-Holland,Den Haag,52.076670,4.298610,2590,+01:00,Axis,http://31.160.161.51:8081/
New Zealand,NZ,Auckland,Auckland,-36.866670,174.766670,1150,+13:00,Mobotix,http://103.37.205.23:8000/
Sweden,SE,Ostergotlands Lan,Linkoping,58.416670,15.616670,58957,+01:00,Linksys,http://95.155.196.227:1024/
Austria,AT,Oberosterreich,Ried Im Innkreis,48.211230,13.488550,4910,+01:00,Mobotix,http://80.123.200.142:80/
Germany,DE,Berlin,Berlin,52.524370,13.410530,10178,+01:00,Mobotix,http://87.128.48.162:80/
Ecuador,EC,Guayas,Guayaquil,-2.166670,-79.900000,090608,-05:00,Panasonic,http://200.124.225.27:50000/
United States,US,Michigan,Marquette,46.543540,-87.395420,49855,-05:00,Axis,http://47.49.38.178:81/
Turkey,TR,Antalya,Antalya,36.908120,30.695560,07170,+03:00,Axis,http://212.175.206.54:80/
Japan,JP,Mie,Inabe,35.117000,136.567000,511-0287,+09:00,PanasonicHD,http://210.149.154.239:80/
United States,US,Texas,El Paso,31.758720,-106.486930,79901,-07:00,Axis,http://65.183.218.20:80/
Cyprus,CY,Larnaca,Larnaca,34.916670,33.629170,2408,+02:00,Axis,http://213.140.218.213:9000/
United States,US,California,Valle Vista,33.747800,-116.893360,92583,-08:00,Axis,http://173.198.10.174:80/
United States,US,New Hampshire,Salem,42.788420,-71.200890,03079,-05:00,Axis,http://173.13.113.38:8081/
Egypt,EG,Al Jizah,Al Jizah,30.008080,31.210930,-,+02:00,PanasonicHD,http://105.198.225.250:8080/
Ireland,IE,Dublin City,Dublin,53.343990,-6.267190,D8,+00:00,Mobotix,http://92.60.192.245:80/
Japan,JP,Tokyo,Tokyo,35.689506,139.691700,214-0021,+09:00,PanasonicHD,http://210.167.121.247:8080/
"Taiwan, Province Of",TW,T'Ai-Wan,Hsinchu,24.803610,120.968610,300,+08:00,Hi3516,http://114.32.238.55:80/
Austria,AT,Tirol,Hall In Tirol,47.283330,11.516670,6060,+01:00,Mobotix,http://80.92.117.241:80/
France,FR,Midi-Pyrenees,Toulouse,43.604260,1.443670,31999,+01:00,Panasonic,http://80.14.150.52:86/
Netherlands,NL,Utrecht,Utrecht,52.090830,5.122220,3525,+01:00,Axis,http://145.131.75.42:80/
Czech Republic,CZ,Jihomoravsky Kraj,Veverska Bityska,49.275910,16.436860,664 71,+01:00,TPLink,http://90.176.240.182:5000/
Belgium,BE,Limburg,Genk,50.965000,5.500820,3690,+01:00,Streamer,http://81.82.211.208:8081/
France,FR,Ile-De-France,Paris,48.853410,2.348800,75915,+01:00,Axis,http://80.13.120.225:8083/
Austria,AT,Vorarlberg,Bregenz,47.503110,9.747100,6911,+01:00,Axis,http://194.208.246.10:80/
France,FR,Poitou-Charentes,Dolus-D'Oleron,45.916670,-1.266670,17550,+01:00,Vivotek,http://80.11.17.223:8080/
United States,US,Iowa,Ames,42.022675,-93.642525,50011,-06:00,Canon,http://129.186.210.193:80/
Sweden,SE,Stockholms Lan,Stockholm,59.332580,18.064900,19587,+01:00,Axis,http://194.103.218.15:80/
Germany,DE,Saarland,Saarlouis,49.313660,6.751540,66740,+01:00,Mobotix,http://188.210.45.124:80/
Japan,JP,Osaka,Osaka,34.693890,135.502220,541-0041,+09:00,Axis,http://203.138.220.33:80/
"Taiwan, Province Of",TW,T'Ai-Wan,Taipei,25.047760,121.531850,10048,+08:00,Sony,http://61.216.189.211:80/
Japan,JP,Hiroshima,Mihara,34.400000,133.083000,723-0047,+09:00,Sony,http://210.146.59.240:50000/
Mexico,MX,Nuevo Leon,Juarez,25.650000,-100.083330,67256,-07:00,Axis,http://201.174.12.243:1024/
United States,US,Massachusetts,Stoneham,42.480100,-71.099500,02180,-05:00,Vivotek,http://173.14.181.193:8080/
Japan,JP,Osaka,Osaka,34.693890,135.502220,541-0041,+09:00,Panasonic,http://153.156.162.12:80/
United States,US,Oregon,Eugene,44.052070,-123.086750,97401,-08:00,PanasonicHD,http://208.83.194.7:80/
Hungary,HU,Budapest,Budapest,47.498010,19.039910,1082,+01:00,Axis2,http://193.224.51.18:80/
"Taiwan, Province Of",TW,T'Ai-Wan,Taipei,25.047760,121.531850,115,+08:00,Hi3516,http://219.85.59.180:81/
Czech Republic,CZ,Ustecky Kraj,Steti,50.452980,14.374210,411 08,+01:00,Vivotek,http://93.99.54.185:8080/
Japan,JP,Ibaraki,Mito,36.367000,140.467000,311-4165,+09:00,Mobotix,http://153.142.212.238:8082/
Italy,IT,Lazio,Rome,41.894740,12.483900,00166,+01:00,Mobotix,http://82.187.186.77:80/
Italy,IT,Lombardia,Milano,45.464270,9.189510,20155,+02:00,Axis,http://93.50.128.65:8081/
Romania,RO,Prahova,Gorgota,44.783330,26.083330,107275,+02:00,Foscam,http://admin:@46.214.56.142:81/
Japan,JP,Saga,Karatsu,33.450000,129.967000,847-0841,+09:00,Canon,http://61.7.34.11:80/
Japan,JP,Hokkaido,Sapporo,43.067000,141.350000,988-0807,+09:00,Mobotix,http://153.156.1.176:8081/
France,FR,Champagne-Ardenne,Sedan,49.700000,4.950000,08209,+01:00,WebcamXP,http://213.111.54.196:8080/
"Korea, Republic Of",KR,Kyonggi-Do,Anseong,37.010830,127.270280,456-320,+09:00,Panasonic,http://175.204.180.147:80/
Switzerland,CH,Graubunden,Ilanz,46.774130,9.204610,7130,+01:00,PanasonicHD,http://217.151.113.195:90/
"Taiwan, Province Of",TW,T'Ai-Wan,Taipei,25.047760,121.531850,100,+08:00,Streamer,http://163.21.227.110:8090/
Japan,JP,Okayama,Okayama,34.650000,133.917000,708-0814,+09:00,Panasonic,http://203.99.224.22:80/
Spain,ES,Madrid,Madrid,40.416500,-3.702560,28050,+01:00,Mobotix,http://194.179.40.154:8081/
Italy,IT,Lombardia,Menaggio,46.020750,9.239070,22017,+01:00,Mobotix,http://95.253.230.42:8081/
Japan,JP,Saga,Karatsu,33.450000,129.967000,847-0841,+09:00,Canon,http://61.7.34.9:80/
"Taiwan, Province Of",TW,T'Ai-Wan,Hsinchu,24.803610,120.968610,300,+08:00,Hi3516,http://123.195.56.222:80/
Germany,DE,Baden-Wurttemberg,Karlsruhe,49.004720,8.385830,76229,+01:00,Mobotix,http://217.92.9.218:80/
Malta,MT,Malta,Valletta,35.899720,14.514720,VLT 1980,+01:00,Panasonic,http://213.165.169.155:8090/
Germany,DE,Schleswig-Holstein,Flensburg,54.784310,9.439610,24988,+02:00,Axis,http://31.209.185.103:80/
"Taiwan, Province Of",TW,T'Ai-Wan,Taipei,25.047760,121.531850,100,+08:00,Streamer,http://163.21.162.51:8090/
United States,US,Maine,Nobleboro,44.105935,-69.476738,04555,-05:00,Axis,http://142.0.109.159:80/
Slovakia,SK,Banska Bystrica,Banska Bystrica,48.739460,19.153490,974 01,+01:00,Vivotek,http://217.12.54.147:8080/
Japan,JP,Osaka,Osaka,34.693890,135.502220,541-0041,+09:00,Mobotix,http://153.156.255.7:8082/
Norway,NO,Telemark,Amot,59.571360,7.987740,3890,+01:00,Axis,http://109.109.80.25:80/
Japan,JP,Aichi,Kuroda,35.350000,136.783330,493-8002,+09:00,Defeway,http://120.51.13.34:60001/
Germany,DE,Bayern,Bad Steben,50.366480,11.644380,95138,+01:00,Axis,http://217.5.204.230:80/
Sweden,SE,Vasterbottens Lan,Mala,65.185010,18.742430,93070,+01:00,Axis,http://80.88.123.92:80/
Japan,JP,Tokyo,Tokyo,35.689506,139.691700,214-0021,+09:00,Panasonic,http://182.171.234.126:80/
United States,US,New York,Albion,43.246450,-78.193630,14411,-05:00,Axis,http://72.43.65.7:80/
Japan,JP,Tokyo,Tokyo,35.689506,139.691700,214-0021,+09:00,Panasonic,http://58.94.98.44:8080/
Finland,FI,Southern Ostrobothni,Lahti,63.216670,22.850000,15200,+02:00,Axis,http://62.165.140.162:80/
Japan,JP,Tokyo,Tokyo,35.689506,139.691700,214-0021,+09:00,Mobotix,http://203.112.62.227:8081/
Japan,JP,Wakayama,Tanabe,33.733000,135.383000,646-0021,+09:00,Panasonic,http://218.45.5.56:80/
Germany,DE,Nordrhein-Westfalen,Monchengladbach,51.185390,6.441720,41199,+01:00,Mobotix,http://193.158.196.187:80/
Japan,JP,Nagano,Iiyama,36.850000,138.367000,389-2254,+09:00,Canon,http://203.141.205.185:80/
Japan,JP,Tokyo,Tokyo,35.689506,139.691700,214-0021,+09:00,Mobotix,http://203.112.62.227:8082/
United States,US,Florida,Palatka,29.648580,-81.637580,32177,-05:00,PanasonicHD,http://150.176.10.89:80/
United States,US,North Carolina,Nashville,35.974600,-77.965540,27856,-05:00,Axis,http://184.0.186.8:80/
Canada,CA,Ontario,Keswick,44.250110,-79.466320,L4P 0A1,-05:00,TPLink,http://74.51.45.125:89/
Bulgaria,BG,Lovech,Lovech,43.133330,24.716670,5500,+02:00,Mobotix,http://89.252.222.121:80/
United States,US,Virginia,Virginia Beach,36.852930,-75.977980,23450,-05:00,PanasonicHD,http://166.251.210.244:81/
Italy,IT,Lazio,Rome,41.894740,12.483900,00100,+01:00,Axis,http://87.26.119.204:80/
Canada,CA,Prince Edward Island,North River,46.258420,-63.194490,C1E 2E2,-04:00,Axis,http://24.137.117.192:80/
Japan,JP,Tokyo,Tokyo,35.689506,139.691700,214-0021,+09:00,Panasonic,http://210.161.174.122:80/
Serbia,RS,Central Serbia,Belgrade,44.804010,20.465130,11118,+01:00,WebcamXP,http://109.206.96.58:8080/
United States,US,Hawaii,Honolulu,21.313120,-157.822133,96822,-10:00,Axis,http://128.171.116.45:80/
Germany,DE,Thuringen,Waltershausen,50.898270,10.557910,99880,+01:00,Mobotix,http://194.25.112.176:8080/
Russian Federation,RU,Udmurt,Glazov,58.139410,52.658420,427629,+03:00,Hi3516,http://91.215.16.185:80/
France,FR,Languedoc-Roussillon,Narbonne,43.183330,3.000000,11790,+01:00,Axis,http://80.15.123.22:80/
Japan,JP,Niigata,Niigata,37.916110,139.036390,950-0965,+09:00,Mobotix,http://153.142.221.5:8083/
United Kingdom,GB,England,Shrewsbury,52.710090,-2.752080,SY1 2BG,+00:00,Axis,http://94.30.51.166:50000/
Mexico,MX,Distrito Federal,Mexico City,19.428470,-99.127660,14629,-06:00,Vivotek,http://132.248.4.16:80/
Japan,JP,Saitama,Saitama,35.867000,139.650000,337-0042,+09:00,Mobotix,http://153.142.232.244:8081/
Norway,NO,Akershus,Ski,59.719490,10.835760,1400,+01:00,Mobotix,http://62.101.231.44:80/
Malta,MT,Malta,Marsa,35.879170,14.495280,MRS 1501,+01:00,Defeway,http://195.158.85.241:8090/
France,FR,Ile-De-France,Saint-Denis,48.933330,2.366670,93528,+01:00,Panasonic,http://90.63.236.235:8080/
Japan,JP,Tokyo,Tokyo,35.689506,139.691700,214-0021,+09:00,Canon,http://218.228.20.84:80/
Russian Federation,RU,Murmansk,Apatity,67.564140,33.403100,184209,+03:00,Axis,http://91.210.204.243:80/
Switzerland,CH,Zurich,Aussersihl,47.377520,8.521270,8004,+01:00,PanasonicHD,http://46.140.67.202:8081/
Poland,PL,Malopolskie,Wolbrom,50.379570,19.758310,02-822,+01:00,Vivotek,http://77.252.78.101:8080/
Norway,NO,Sor-Trondelag,Meldal,63.047210,9.713370,7338,+01:00,Vivotek,http://88.84.34.38:80/
Switzerland,CH,Sankt Gallen,Buchs,47.167430,9.477940,9471,+01:00,Foscam,http://admin:@88.84.7.203:88/
"Taiwan, Province Of",TW,T'Ai-Wan,Taipei,25.047760,121.531850,100,+08:00,Streamer,http://163.21.199.190:8090/
Norway,NO,Oslo,Oslo,59.912730,10.746090,0212,+01:00,Axis,http://193.214.75.118:80/
Switzerland,CH,Zurich,Zurich,47.366670,8.550000,8045,+01:00,Axis,http://46.14.231.181:8888/
Poland,PL,Warminsko-Mazurskie,Lidzbark Warminski,54.125880,20.579540,11-102,+01:00,Mobotix,http://213.5.151.161:80/
Israel,IL,Hamerkaz,Netanya,32.333610,34.857780,42140,+02:00,Mobotix,http://95.35.30.163:80/
Sweden,SE,Hallands Lan,Kungsbacka,57.487190,12.076120,43439,+01:00,WebcamXP,http://94.246.76.230:8080/
Austria,AT,Steiermark,Kindberg,47.500000,15.450000,8652,+01:00,Mobotix,http://213.173.92.19:80/
United States,US,Hawaii,Honolulu,21.306940,-157.858330,96813,-10:00,Axis,http://98.155.244.58:80/
Luxembourg,LU,Diekirch,Wiltz,49.968890,5.931940,L-9696,+01:00,Mobotix,http://213.135.244.47:80/
United States,US,Maryland,Baltimore,39.290380,-76.612190,21201,-05:00,Mobotix,http://69.85.29.20:80/
Canada,CA,Saskatchewan,Prince Albert,53.200080,-105.767720,S6V 0A1,-06:00,Axis,http://142.165.244.145:8084/
France,FR,Ile-De-France,Velizy-Villacoublay,48.781980,2.193950,78946,+01:00,Mobotix,http://80.11.222.206:8090/
Switzerland,CH,Graubunden,Ilanz,46.774130,9.204610,7130,+01:00,PanasonicHD,http://217.151.113.195:82/
United States,US,Wisconsin,Green Bay,44.561248,-88.103452,54313,-06:00,Axis,http://206.40.97.180:80/
Austria,AT,Niederosterreich,Puchenstuben,47.928190,15.287480,3223,+01:00,Mobotix,http://178.18.175.160:8000/
United States,US,Oregon,La Grande,45.324580,-118.087720,97850,-08:00,Axis,http://140.211.34.26:80/
United States,US,Massachusetts,Cambridge,42.375100,-71.105610,02138,-05:00,PanasonicHD,http://50.255.143.50:60001/
Czech Republic,CZ,Hlavni Mesto Praha,Prague,50.088040,14.420760,150 00,+01:00,TPLink,http://90.178.66.78:2000/
Germany,DE,Rheinland-Pfalz,Mainz,49.984190,8.279100,55130,+01:00,Mobotix,http://134.93.182.99:80/
Slovakia,SK,Presov,Presov,48.998390,21.233930,080 01,+01:00,Axis,http://92.245.4.53:80/
Egypt,EG,Al Jizah,Al Jizah,30.008080,31.210930,-,+02:00,Axis,http://41.38.31.28:80/
France,FR,Ile-De-France,Lognes,48.835410,2.629980,77185,+01:00,Sony,http://80.15.5.179:8080/
Sweden,SE,Uppsala Lan,Uppsala,59.858500,17.645430,75900,+01:00,Mobotix,http://130.238.99.157:80/
United States,US,Wisconsin,Kenosha,42.584740,-87.821190,53140,-06:00,Panasonic,http://70.92.17.190:50001/
Switzerland,CH,Vaud,Lausanne,46.516000,6.632820,1002,+01:00,Mobotix,http://46.14.203.136:8080/
Japan,JP,Gumma,Maebashi,36.383000,139.067000,371-0802,+09:00,Mobotix,http://153.142.26.163:8083/
Italy,IT,Friuli-Venezia Giuli,Trieste,45.648610,13.780000,34012,+01:00,Mobotix,http://195.14.102.180:80/
Japan,JP,Tokyo,Tokyo,35.689506,139.691700,214-0021,+09:00,PanasonicHD,http://202.213.96.147:60001/
Sweden,SE,Vasterbottens Lan,Mala,65.185010,18.742430,93070,+01:00,Axis,http://80.88.123.96:80/
Germany,DE,Thuringen,Schmalkalden,50.721360,10.443860,98574,+01:00,Sony-CS3,http://194.94.31.202:80/
Mexico,MX,Nuevo Leon,San Nicolas De Los G,25.750000,-100.300000,66055,-06:00,Vivotek,http://201.159.107.246:8080/
"Korea, Republic Of",KR,Kyonggi-Do,Munsan,37.859440,126.785000,413-904,+09:00,Axis,http://119.193.68.199:5000/
Japan,JP,Okinawa,Nago,26.591670,127.977500,905-2263,+09:00,Mobotix,http://180.43.70.165:8081/
United Kingdom,GB,England,London,51.508530,-0.125740,WC2N 5RJ,+00:00,Axis,http://217.33.17.229:80/
"Korea, Republic Of",KR,Seoul-T'Ukpyolsi,Seoul,37.568260,126.977830,100-101,+09:00,Hi3516,http://106.240.39.45:8000/
United States,US,South Dakota,Brookings,44.306284,-96.786151,57007,-06:00,Axis,http://137.216.132.157:80/
Czech Republic,CZ,Hlavni Mesto Praha,Prague,50.088040,14.420760,155 00,+01:00,Vivotek,http://91.245.28.38:90/
Japan,JP,Tokyo,Tokyo,35.689506,139.691700,214-0021,+09:00,PanasonicHD,http://210.167.113.225:50001/
United States,US,Connecticut,Clinton,41.278710,-72.527590,06413,-05:00,Axis,http://96.89.245.26:8000/
United States,US,Connecticut,Shelton,41.316490,-73.093160,06484,-05:00,Axis,http://107.0.231.40:8081/
Greece,GR,Attiki,Athens,37.979450,23.716220,167 77,+02:00,Vivotek,http://212.205.219.237:8080/
Germany,DE,Schleswig-Holstein,Tangstedt,53.666670,9.850000,22889,+01:00,Axis,http://46.16.221.234:80/
Czech Republic,CZ,Olomoucky Kraj,Olomouc,49.595520,17.251750,779 00,+01:00,Vivotek,http://217.196.113.218:80/
United States,US,New York,New York City,40.714270,-74.005970,10116,-05:00,PanasonicHD,http://166.155.135.127:8083/
Japan,JP,Okayama,Okayama,34.650000,133.917000,700-0824,+09:00,Canon,http://220.98.221.22:80/
Japan,JP,Tokyo,Tokyo,35.689506,139.691700,214-0021,+09:00,Canon,http://202.213.110.84:80/
Japan,JP,Gumma,Maebashi,36.383000,139.067000,371-0802,+09:00,Mobotix,http://153.142.26.163:8081/
Germany,DE,Sachsen,Dresden,51.050890,13.738320,01067,+01:00,Mobotix,http://80.153.57.150:50001/
France,FR,Ile-De-France,Bobigny,48.900000,2.450000,93909,+01:00,Mobotix,http://217.128.13.193:83/
Japan,JP,Gifu,Gifu,35.417000,136.767000,500-8176,+09:00,Mobotix,http://153.142.42.118:8082/
Japan,JP,Okayama,Okayama,34.650000,133.917000,708-0814,+09:00,Panasonic,http://203.99.224.26:80/
Germany,DE,Brandenburg,Wandlitz,52.741960,13.457990,16348,+01:00,Axis,http://80.153.65.223:80/
United States,US,Colorado,Denver,39.749838,-104.995597,80202,-07:00,Sony,http://65.157.18.121:80/
Japan,JP,Ibaraki,Tsukuba,36.033000,140.067000,300-4205,+09:00,Mobotix,http://153.142.224.60:8081/
United States,US,Florida,Lake Mary,28.758880,-81.317840,32746,-05:00,Axis,http://97.68.79.162:80/
Japan,JP,Saitama,Saitama,35.867000,139.650000,337-0042,+09:00,Mobotix,http://153.142.232.244:8082/
Russian Federation,RU,Moscow City,Moscow,55.752220,37.615560,144000,+03:00,PanasonicHD,http://46.160.230.172:80/
Germany,DE,Bayern,Altstadt,48.137000,11.575210,80331,+01:00,Axis,http://217.92.24.53:8081/
United States,US,Ohio,Athens,39.329240,-82.101260,45701,-05:00,Panasonic,http://32.215.187.242:9000/
Japan,JP,Wakayama,Tanabe,33.733000,135.383000,646-0021,+09:00,Panasonic,http://218.45.5.58:80/
"Taiwan, Province Of",TW,T'Ai-Wan,Fengyuan,24.250000,120.716940,420,+08:00,Hi3516,http://114.33.27.72:8090/
United States,US,Maine,Ogunquit,43.248980,-70.599220,03907,-05:00,Axis,http://24.39.188.162:80/
United States,US,Virginia,Falls Church,38.882330,-77.171090,22040,-05:00,Vivotek,http://64.135.199.212:8080/
Turkey,TR,Mersin,Tarsus,36.918760,34.878400,81650,+02:00,Sony,http://78.186.7.161:8001/
United States,US,California,Los Angeles,34.052230,-118.243680,90001,-08:00,WebcamXP,http://99.114.240.169:8080/
United States,US,Minnesota,Mankato,44.158692,-93.998113,56001,-06:00,Mobotix,http://198.160.171.196:80/
France,FR,Ile-De-France,Bobigny,48.900000,2.450000,93909,+01:00,Mobotix,http://217.128.13.193:81/
"Taiwan, Province Of",TW,T'Ai-Wan,Taipei,25.047760,121.531850,100,+08:00,Hi3516,http://220.135.79.147:80/
Japan,JP,Gifu,Gifu,35.417000,136.767000,500-8176,+09:00,Mobotix,http://153.142.42.118:8081/
United States,US,California,Rancho Cucamonga,34.106400,-117.593110,91701,-08:00,Axis,http://166.165.35.37:80/
Japan,JP,Mie,Iga,34.767000,136.133000,519-1413,+09:00,Panasonic,http://125.206.51.32:80/
Japan,JP,Kanagawa,Fujisawa,35.350000,139.467000,251-0054,+09:00,PanasonicHD,http://61.45.39.252:6001/
Japan,JP,Saitama,Saitama,35.867000,139.650000,337-0042,+09:00,Mobotix,http://153.142.232.244:8084/
United States,US,Texas,San Antonio,29.424120,-98.493630,78201,-06:00,Axis,http://68.93.141.17:8000/
United States,US,California,Apple Valley,34.500830,-117.185880,92307,-08:00,Sony,http://68.15.86.213:80/
Italy,IT,Molise,Campobasso,41.560030,14.667530,86100,+01:00,Axis,http://195.32.24.180:1024/
Switzerland,CH,Zurich,Zurich,47.366670,8.550000,8005,+01:00,Mobotix,http://46.140.57.14:80/
United States,US,North Carolina,Kill Devil Hills,36.030720,-75.676010,27948,-05:00,Sony-CS3,http://24.177.24.171:80/
Germany,DE,Bayern,Nuremberg,49.447780,11.068330,90455,+01:00,Axis,http://87.140.122.56:80/
Germany,DE,Nordrhein-Westfalen,Dortmund,51.514940,7.466000,44135,+01:00,Mobotix,http://85.233.53.98:81/
France,FR,Provence-Alpes-Cote,Nice,43.703130,7.266080,06833,+01:00,Panasonic,http://82.127.164.2:85/
United States,US,Indiana,Indianapolis,39.768380,-86.158040,46201,-05:00,ChannelVision,http://69.108.44.90:83/
Ireland,IE,Dublin City,Dublin,53.343990,-6.267190,D8,+00:00,Axis,http://86.47.91.148:8083/
United States,US,California,Los Angeles,34.052230,-118.243680,90001,-08:00,DLink-DCS-932,http://107.209.157.105:80/
France,FR,Poitou-Charentes,Beaumont,46.737730,0.429610,86490,+01:00,Bosch,http://82.127.80.153:10003/
United States,US,Oregon,Wilsonville,45.299840,-122.773710,97070,-08:00,Toshiba,http://75.148.91.164:80/
Serbia,RS,Vojvodina,Zrenjanin,45.383610,20.381940,23101,+01:00,Vivotek,http://109.94.224.249:80/
Japan,JP,Fukuoka,Fukuoka,33.583000,130.400000,812-0045,+09:00,Canon,http://202.213.140.9:80/
Austria,AT,Niederosterreich,Erlauf,48.183330,15.183330,3380,+01:00,Mobotix,http://85.255.155.178:80/
Canada,CA,Alberta,Sherwood Park,53.516840,-113.318700,T8A 0A1,-07:00,Mobotix,http://142.59.220.119:80/
Russian Federation,RU,Primor'Ye,Vladivostok,43.105620,131.873530,690092,+09:00,Mobotix,http://95.154.104.9:80/
Hungary,HU,Pest,Budaors,47.461810,18.958450,2040,+01:00,Vivotek,http://79.120.134.227:80/
Switzerland,CH,Vaud,Yverdon-Les-Bains,46.778520,6.641150,1400,+01:00,Mobotix,http://212.147.38.194:8082/
United States,US,Florida,Melbourne,28.083630,-80.608110,32901,-05:00,Axis,http://75.112.36.194:80/
Finland,FI,Southern Ostrobothni,Lahti,63.216670,22.850000,15200,+02:00,Axis,http://62.165.140.178:80/
United States,US,Virginia,Falls Church,38.882330,-77.171090,22040,-05:00,Vivotek,http://64.135.199.212:8082/
Austria,AT,Niederosterreich,Erlauf,48.183330,15.183330,3380,+01:00,Mobotix,http://85.255.155.179:80/
Germany,DE,Rheinland-Pfalz,Mainz,49.984190,8.279100,55130,+01:00,Vivotek,http://134.93.168.151:8080/
United States,US,Tennessee,Lebanon,36.208110,-86.291100,37087,-06:00,Axis,http://166.142.197.240:80/
Norway,NO,Hedmark,Rena,61.134840,11.364090,2450,+01:00,Canon,http://82.147.33.164:80/
Russian Federation,RU,Penza,Penza,53.200660,45.004640,440999,+04:00,Axis,http://85.237.63.165:80/
Germany,DE,Baden-Wurttemberg,Ludwigshafen,47.816640,9.061380,67059,+01:00,Mobotix,http://185.10.193.210:80/
Japan,JP,Gumma,Maebashi,36.383000,139.067000,371-0802,+09:00,Mobotix,http://153.142.26.163:8084/
Norway,NO,Akershus,Kjenn,59.930980,10.953730,1473,+01:00,Vivotek,http://194.248.169.182:8080/
United States,US,North Dakota,Bismarck,46.818096,-100.779822,58501,-05:00,Axis,http://165.234.49.201:80/
United States,US,Virginia,Virginia Beach,36.852930,-75.977980,23450,-05:00,PanasonicHD,http://166.251.210.239:81/
Viet Nam,VN,Dong Nai,Bien Hoa,10.950000,106.816670,810000,+07:00,PanasonicHD,http://210.245.111.195:8082/
France,FR,Ile-De-France,Noisy-Le-Sec,48.891480,2.464510,93136,+01:00,ChannelVision,http://80.13.234.134:8080/
Italy,IT,Piemonte,Ivrea,45.458060,7.871920,10015,+01:00,TPLink,http://91.81.88.254:80/
-,-,-,-,0.000000,0.000000,-,-,Vivotek,http://185.163.40.116:8080/
Japan,JP,Tokyo,Tokyo,35.689506,139.691700,214-0021,+09:00,Mobotix,http://203.112.62.227:8083/
Austria,AT,Niederosterreich,Wiener Neustadt,47.800000,16.250000,2700,+01:00,Axis,http://80.121.189.214:8080/
United States,US,Minnesota,Mankato,44.158692,-93.998113,56001,-06:00,Mobotix,http://198.160.171.194:80/
"Taiwan, Province Of",TW,T'Ai-Wan,Taipei,25.047760,121.531850,100,+08:00,ChannelVision,http://117.56.173.37:90/
Ireland,IE,Kilkenny,Kilkenny,52.654170,-7.252220,D20,+00:00,Axis,http://86.42.36.190:1024/
United States,US,Iowa,Sioux City,42.469340,-96.357513,51106,-06:00,Panasonic,http://198.102.147.35:80/
Japan,JP,Niigata,Niigata,37.916110,139.036390,950-0965,+09:00,Mobotix,http://153.142.221.5:8082/
Japan,JP,Kanagawa,Hakone,35.183000,139.033000,250-0521,+09:00,Mobotix,http://153.142.220.174:8084/
Spain,ES,Catalonia,Barcelona,41.388790,2.158990,08036,+01:00,Bosch,http://88.28.202.225:10000/
Japan,JP,Hokkaido,Sapporo,43.067000,141.350000,988-0807,+09:00,Panasonic,http://219.101.88.67:60001/
"Taiwan, Province Of",TW,T'Ai-Wan,Taichung,24.146900,120.683900,400,+08:00,Hi3516,http://114.33.9.62:88/
United States,US,New York,Albany,42.652580,-73.756230,12201,-05:00,Vivotek,http://208.125.248.35:80/
Japan,JP,Wakayama,Wakayama,34.233000,135.167000,641-0056,+09:00,Canon,http://210.155.217.20:80/
Japan,JP,Osaka,Osaka,34.693890,135.502220,541-0041,+09:00,Panasonic,http://153.156.184.20:82/
France,FR,Bretagne,Vezin-Le-Coquet,48.118570,-1.754660,35746,+01:00,Mobotix,http://80.13.225.105:8084/
Japan,JP,Gumma,Maebashi,36.383000,139.067000,371-0802,+09:00,Mobotix,http://153.142.26.162:8081/
United States,US,North Carolina,Sneads Ferry,34.552670,-77.397180,28460,-05:00,Axis,http://65.40.110.162:80/
United States,US,Washington,Spokane,47.659660,-117.429080,99201,-08:00,PanasonicHD,http://63.224.217.217:81/
Czech Republic,CZ,Liberecky Kraj,Frydlant,50.921390,15.079740,464 01,+01:00,Axis,http://149.255.82.215:8080/
United States,US,New York,Madison,42.900833,-75.515278,13402,-05:00,Vivotek,http://24.103.162.82:80/
Norway,NO,Nordland,Inndyr,67.033800,14.027570,8140,+01:00,Axis,http://77.110.219.78:80/
Netherlands,NL,Zuid-Holland,Capelle Aan Den Ijss,51.929170,4.577780,2900,+01:00,PanasonicHD,http://81.204.47.18:50000/
Germany,DE,Hessen,Rodgau,50.026270,8.885880,63110,+01:00,Axis,http://213.188.119.196:80/
United States,US,California,Riverside,33.953350,-117.396160,92501,-08:00,Axis,http://71.83.147.198:8000/
France,FR,Provence-Alpes-Cote,Orange,44.139200,4.807910,92791,+01:00,Axis,http://90.102.16.142:80/
Austria,AT,Wien,Vienna,48.208490,16.372080,1010,+01:00,Mobotix,http://91.113.207.170:80/
France,FR,Ile-De-France,Paris,48.853410,2.348800,75008,+01:00,DLink-DCS-932,http://78.253.40.32:80/
Germany,DE,Bayern,Fasangarten,48.100000,11.600000,81549,+01:00,Mobotix,http://217.7.249.14:8080/
United States,US,Wisconsin,Oshkosh,43.995900,-88.563480,54903,-06:00,PanasonicHD,http://72.1.28.203:81/
"Korea, Republic Of",KR,Kyongsang-Namdo,Chinju,35.192780,128.084720,660-150,+09:00,Hi3516,http://118.39.243.110:8000/
United States,US,California,La Jolla,32.847270,-117.274200,92037,-08:00,Axis,http://69.165.113.212:80/
Italy,IT,Lazio,Rome,41.894740,12.483900,00135,+01:00,Foscam,http://admin:@95.227.252.185:80/
Japan,JP,Nagano,Nagano,36.633000,138.183000,380-0838,+09:00,Panasonic,http://220.254.170.10:80/
Switzerland,CH,Graubunden,Ilanz,46.774130,9.204610,7130,+01:00,PanasonicHD,http://217.151.113.195:83/
Germany,DE,Hessen,Offenbach,50.100600,8.766470,63073,+01:00,Vivotek,http://217.92.72.120:80/
Norway,NO,Hordaland,Bergen,60.392990,5.324150,5893,+01:00,Vivotek,http://213.128.173.208:8000/
Turkey,TR,Trabzon,Caykara,40.754810,40.235520,61950,+02:00,Defeway,http://78.188.239.112:60001/
Germany,DE,Nordrhein-Westfalen,Mettingen,52.316670,7.783330,49497,+01:00,Mobotix,http://85.8.92.1:80/
United Kingdom,GB,England,Gatwick,51.166670,-0.183330,RH6 0AL,+00:00,Panasonic,http://80.229.42.13:80/
Spain,ES,Madrid,Belmonte De Tajo,40.131620,-3.335800,28391,+01:00,Mobotix,http://46.24.41.137:80/
Finland,FI,Southern Savonia,Mikkeli,61.688570,27.272270,50100,+02:00,Mobotix,http://82.197.28.219:80/
Mongolia,MN,Ulaanbaatar,Ulaanbaatar,47.907710,106.883240,15172,+08:00,Defeway,http://124.158.77.201:80/
Japan,JP,Tokyo,Tokyo,35.689506,139.691700,214-0021,+09:00,Panasonic,http://219.117.209.206:80/
Japan,JP,Kanagawa,Hakone,35.183000,139.033000,250-0521,+09:00,Mobotix,http://153.142.220.174:8083/
Poland,PL,Slaskie,Czestochowa,50.796460,19.124090,42-200,+01:00,Vivotek,http://212.87.254.166:80/
Netherlands,NL,Zuid-Holland,Hoek Van Holland,51.977500,4.133330,3151,+01:00,Vivotek,http://84.80.136.179:9000/
Japan,JP,Gumma,Maebashi,36.383000,139.067000,371-0802,+09:00,Mobotix,http://153.142.26.162:8084/
Austria,AT,Karnten,Klagenfurt Am Woerth,46.624720,14.305280,9201,+01:00,Axis,http://91.113.129.222:80/
Japan,JP,Hyogo,Nishinomiya,34.737597,135.341564,663-8186,+09:00,Mobotix,http://153.142.41.131:8081/
Hungary,HU,Budapest,Budapest,47.498010,19.039910,2040,+01:00,Axis,http://91.120.63.29:80/
Japan,JP,Tokyo,Tokyo,35.689506,139.691700,214-0021,+09:00,Panasonic,http://210.248.127.21:80/
Japan,JP,Gumma,Maebashi,36.383000,139.067000,371-0802,+09:00,Mobotix,http://153.142.26.162:8083/
Japan,JP,Saga,Karatsu,33.450000,129.967000,847-0841,+09:00,Canon,http://61.7.34.25:80/
United Kingdom,GB,England,Icklingham,52.327290,0.596270,IP28 6PU,+00:00,PanasonicHD,http://217.41.66.17:84/
United States,US,New York,Plainview,40.785072,-73.481233,11803,-05:00,Vivotek,http://173.220.42.212:8000/
Japan,JP,Hyogo,Nishinomiya,34.737597,135.341564,663-8186,+09:00,Mobotix,http://153.142.41.131:8082/
United States,US,North Dakota,Grand Forks,47.925260,-97.032850,58201,-06:00,Sony,http://24.230.87.90:80/
Japan,JP,Hokkaido,Hakodate,41.767000,140.733000,041-0805,+09:00,PanasonicHD,http://180.148.146.13:80/
Switzerland,CH,Zurich,Zurich,47.366670,8.550000,8005,+01:00,Axis,http://46.140.226.238:81/
Japan,JP,Tokyo,Tokyo,35.689506,139.691700,214-0021,+09:00,Panasonic,http://118.22.23.185:80/
Mexico,MX,Distrito Federal,Mexico City,19.428470,-99.127660,14629,-06:00,Vivotek,http://132.248.4.26:8080/
United States,US,Washington,Seattle,47.612010,-122.335140,98111,-08:00,Axis,http://64.38.186.253:8081/
Norway,NO,Finnmark,Alta,69.968870,23.271650,9509,+01:00,Vivotek,http://77.222.169.38:8080/
Russian Federation,RU,Volgograd,Volgograd,48.719390,44.501840,400066,+03:00,Axis,http://85.172.126.26:81/
Austria,AT,Tirol,Imst,47.245040,10.739740,6460,+01:00,WebcamXP,http://46.243.108.21:8080/
United States,US,New York,Tivoli,42.058420,-73.909300,12583,-05:00,Axis,http://24.39.106.6:8000/
United States,US,Florida,Groveland,28.558050,-81.851190,34736,-05:00,Axis,http://65.40.15.131:84/
United States,US,California,Los Angeles,34.052230,-118.243680,90017,-08:00,Panasonic,http://104.172.152.180:80/
Italy,IT,Friuli-Venezia Giuli,Pordenone,45.963890,12.657500,33170,+01:00,Axis,http://46.19.234.136:80/
Romania,RO,Bucuresti,Bucharest,44.432250,26.106260,060222,+02:00,Mobotix,http://37.156.71.254:80/
Israel,IL,Tel Aviv,Tel Aviv,32.080880,34.780570,-,+02:00,Mobotix,http://176.12.131.175:80/
United States,US,Kentucky,Pikeville,37.478656,-82.515176,41501,-05:00,Vivotek,http://70.159.38.199:8080/
Japan,JP,Gumma,Maebashi,36.383000,139.067000,371-0802,+09:00,Mobotix,http://153.142.26.163:8082/
Mexico,MX,Jalisco,Puerto Vallarta,20.620410,-105.230660,49063,-06:00,Axis,http://201.144.24.221:80/
Germany,DE,Nordrhein-Westfalen,Diessem,51.323590,6.580590,47805,+01:00,Mobotix,http://94.79.182.146:80/
Latvia,LV,Riga,Riga,56.946000,24.105890,1002,+02:00,Mobotix,http://80.232.164.53:80/
Japan,JP,Gumma,Takasaki,36.333330,139.016670,370-0811,+09:00,Mobotix,http://153.156.16.125:8081/
Sweden,SE,Gavleborgs Lan,Soderhamn,61.303730,17.059210,82693,+01:00,Mobotix,http://81.94.77.18:80/
Japan,JP,Tokyo,Tokyo,35.689506,139.691700,141-0031,+09:00,PanasonicHD,http://61.8.83.213:80/
United States,US,Virginia,Falls Church,38.882330,-77.171090,22040,-05:00,Vivotek,http://64.135.199.212:8081/
United States,US,Michigan,Sebewaing,43.732240,-83.451070,48759,-05:00,Axis,http://216.25.186.19:80/
Switzerland,CH,Valais,Port-Valais,46.371560,6.872630,1897,+01:00,Mobotix,http://213.221.150.11:80/
Viet Nam,VN,Dong Nai,Bien Hoa,10.950000,106.816670,810000,+07:00,PanasonicHD,http://210.245.111.195:8083/
Canada,CA,Ontario,Garson,46.491399,-80.991983,P3E 5J8,-05:00,DLink-DCS-932,http://173.0.208.197:8080/
Italy,IT,Puglia,Salve,39.861320,18.293330,73050,+01:00,Vivotek,http://195.60.145.122:8080/
United States,US,South Dakota,Sioux Falls,43.549970,-96.700330,57101,-06:00,Axis,http://64.251.182.20:80/
Ireland,IE,Galway,Galway,53.271940,-9.048890,D17,+00:00,Panasonic,http://86.47.125.11:84/
France,FR,Ile-De-France,Velizy-Villacoublay,48.781980,2.193950,78946,+01:00,Mobotix,http://80.11.222.167:2000/
Italy,IT,Veneto,Due Carrare,45.292590,11.818410,35020,+01:00,PanasonicHD,http://46.234.201.85:8081/
Czech Republic,CZ,Olomoucky Kraj,Olomouc,49.595520,17.251750,779 00,+01:00,Vivotek,http://217.196.113.218:8080/
United States,US,Idaho,Twin Falls,42.561509,-114.462844,83303,-07:00,Sony-CS3,http://204.134.224.200:80/
"Taiwan, Province Of",TW,T'Ai-Wan,Hsinchu,24.803610,120.968610,300,+08:00,Hi3516,http://59.126.12.110:80/
Italy,IT,Emilia-Romagna,Fidenza,44.863960,10.066680,43036,+01:00,Vivotek,http://185.63.13.82:8083/
Austria,AT,Niederosterreich,Klein-Poechlarn,48.216670,15.216670,3660,+01:00,ChannelVision,http://176.120.161.6:8082/
Netherlands,NL,Noord-Holland,Bennebroek,52.320830,4.598610,2121,+01:00,Mobotix,http://90.145.45.197:80/
Germany,DE,Hessen,Raunheim,50.013200,8.452530,65479,+01:00,Mobotix,http://80.153.222.47:50001/
Ireland,IE,Galway,Galway,53.271940,-9.048890,D17,+00:00,Panasonic,http://86.47.125.11:82/
Indonesia,ID,Jakarta Raya,Jakarta,-6.214620,106.845130,10310,+07:00,PanasonicHD,http://66.96.234.244:50001/
France,FR,Bretagne,Vezin-Le-Coquet,48.118570,-1.754660,35746,+01:00,Mobotix,http://80.13.225.105:8082/
Italy,IT,Lombardia,Milan,45.464270,9.189510,20136,+01:00,Sony,http://82.113.198.35:83/
Switzerland,CH,Aargau,Brugg,47.480960,8.208690,5200,+01:00,Panasonic,http://81.6.49.170:80/
Switzerland,CH,Bern,Burgdorf,47.059010,7.627860,3400,+01:00,Mobotix,http://147.87.98.14:80/
Austria,AT,Niederosterreich,Stossing,48.122670,15.813790,3074,+01:00,Mobotix,http://82.218.207.163:8000/
Serbia,RS,Vojvodina,Novi Pazar,43.136670,20.512220,-,+02:00,Axis,http://93.87.72.254:8082/
Austria,AT,Tirol,Brixen Im Thale,47.450000,12.250000,6364,+01:00,Axis,http://77.119.246.39:82/
Sweden,SE,Uppsala Lan,Uppsala,59.858500,17.645430,75900,+01:00,Mobotix,http://193.10.98.18:80/
Mexico,MX,Distrito Federal,Mexico City,19.428470,-99.127660,14629,-06:00,Axis,http://132.248.4.14:80/
Russian Federation,RU,Moskva,Reutov,55.761110,37.857500,143969,+03:00,Axis,http://77.37.132.86:80/
Iceland,IS,Hofuoborgarsvaoio,Kopavogur,64.112340,-21.912980,200,+00:00,Axis,http://217.171.212.63:80/
Kazakhstan,KZ,East Kazakhstan,Ust'-Kamenogorsk,49.978890,82.610280,-,+06:00,TPLink,http://212.154.245.179:80/
Switzerland,CH,Bern,Munchenbuchsee,47.021750,7.450360,3053,+01:00,Axis,http://213.3.2.168:9000/
France,FR,Centre,Saint-Jean-De-La-Rue,47.911270,1.864830,45149,+01:00,Panasonic,http://80.15.7.114:90/
Italy,IT,Emilia-Romagna,Sant'Agata Sul Sante,44.442170,11.860120,48020,+01:00,Mobotix,http://195.62.179.17:80/
"Korea, Republic Of",KR,Cholla-Namdo,Moppo,34.793610,126.388610,530-300,+09:00,Hi3516,http://183.105.161.222:8000/
Japan,JP,Nagano,Nagano,36.633000,138.183000,380-0838,+09:00,Canon,http://220.254.147.11:80/
Czech Republic,CZ,Ustecky Kraj,Steti,50.452980,14.374210,411 08,+01:00,Vivotek,http://93.99.54.185:8082/
Japan,JP,Osaka,Osaka,34.693890,135.502220,541-0041,+09:00,Panasonic,http://153.156.184.20:81/
Austria,AT,Tirol,Innsbruck,47.262660,11.394540,6020,+01:00,Mobotix,http://93.83.91.210:86/
Italy,IT,Piemonte,Torino,45.070490,7.686820,10135,+01:00,Mobotix,http://150.145.35.113:80/
Poland,PL,Warminsko-Mazurskie,Lidzbark Warminski,54.125880,20.579540,11-102,+01:00,Mobotix,http://213.5.145.5:80/
United States,US,Florida,Tampa,27.947520,-82.458430,33601,-05:00,Axis,http://97.76.165.226:80/
Russian Federation,RU,Sverdlovsk,Yekaterinburg,56.857500,60.612500,620098,+06:00,Axis,http://178.46.128.247:8090/
Finland,FI,Finland Proper,Uusikaupunki,60.800430,21.408410,23500,+02:00,Mobotix,http://83.146.208.254:81/
United States,US,New Hampshire,Gilford,43.547580,-71.406740,03247,-05:00,Axis,http://65.175.137.125:80/
United States,US,New Mexico,Albuquerque,35.090090,-106.619080,87131,-07:00,Axis,http://64.106.73.48:80/
France,FR,Provence-Alpes-Cote,Menton,43.776490,7.504350,06508,+01:00,Vivotek,http://80.14.193.47:8082/
France,FR,Provence-Alpes-Cote,Menton,43.776490,7.504350,06508,+01:00,Vivotek,http://80.14.193.47:8081/
Japan,JP,Osaka,Osaka,34.693890,135.502220,541-0041,+09:00,Mobotix,http://153.156.255.8:8081/
Japan,JP,Osaka,Osaka,34.693890,135.502220,541-0041,+09:00,Mobotix,http://153.156.255.8:8083/
United States,US,Alaska,Anchorage,61.218060,-149.900280,99501,-09:00,Axis,http://137.229.53.64:80/
Sweden,SE,Stockholms Lan,Stockholm,59.332580,18.064900,19587,+01:00,Axis,http://81.225.76.14:82/
Norway,NO,-,-,59.912730,10.746090,-,+02:00,Axis,http://109.109.80.252:80/
United States,US,Washington,Spokane,47.659660,-117.429080,99201,-08:00,Axis,http://74.95.68.26:80/
Italy,IT,Lombardia,Settimo Milanese,45.477710,9.055740,20019,+01:00,Axis,http://88.149.151.90:8080/
Japan,JP,Ibaraki,Tsukuba,36.033000,140.067000,300-4205,+09:00,Mobotix,http://153.142.224.60:8082/
Russian Federation,RU,Krasnoyarskiy Kray,Ural,55.907780,94.746390,663977,+07:00,Axis,http://46.229.132.172:5000/
Poland,PL,Warminsko-Mazurskie,Lidzbark Warminski,54.125880,20.579540,11-102,+01:00,Mobotix,http://213.5.145.4:80/
Japan,JP,Osaka,Osaka,34.693890,135.502220,541-0041,+09:00,PanasonicHD,http://219.121.15.95:60001/
France,FR,Ile-De-France,Mere,48.784450,1.812470,78490,+01:00,Vivotek,http://213.44.129.163:8084/
Spain,ES,Madrid,Madrid,40.416500,-3.702560,28050,+01:00,DLink,http://2.139.200.170:1024/
Italy,IT,Lazio,Rome,41.894740,12.483900,00166,+01:00,Mobotix,http://82.187.186.76:80/
Serbia,RS,Central Serbia,Belgrade,44.804010,20.465130,11118,+01:00,WebcamXP,http://109.206.96.249:8080/
France,FR,Provence-Alpes-Cote,Saint-Tropez,43.269320,6.639810,83997,+01:00,Sony,http://80.13.71.238:8080/
Russian Federation,RU,Novosibirsk,Novosibirsk,55.041500,82.934600,630099,+06:00,Defeway,http://37.193.48.181:60001/
Germany,DE,Schleswig-Holstein,Ronne,54.267540,10.179170,24223,+01:00,Mobotix,http://212.51.19.75:80/
Latvia,LV,Riga,Riga,56.946000,24.105890,1002,+02:00,Mobotix,http://80.232.164.51:80/
Japan,JP,Saga,Karatsu,33.450000,129.967000,847-0841,+09:00,Canon,http://61.7.34.16:80/
"Korea, Republic Of",KR,Seoul-T'Ukpyolsi,Seoul,37.568260,126.977830,100-101,+09:00,Vivotek,http://182.223.125.162:8080/
"Korea, Republic Of",KR,Seoul-T'Ukpyolsi,Seoul,37.568260,126.977830,100-101,+09:00,Hi3516,http://211.248.86.19:8000/
Czech Republic,CZ,Hlavni Mesto Praha,Stare Mesto,50.087000,14.420240,150 00,+01:00,DLink-DCS-932,http://46.33.118.99:82/
Russian Federation,RU,Altaisky Krai,Barnaul,53.360560,83.763610,656008,+06:00,Hi3516,http://90.188.30.11:80/
United States,US,Pennsylvania,Doylestown,40.332540,-75.116640,18901,-05:00,Axis,http://166.251.105.190:80/
United States,US,Indiana,Indianapolis,39.768380,-86.158040,46201,-05:00,ChannelVision,http://69.108.44.90:86/
United States,US,Pennsylvania,Gastonville,40.257290,-79.995880,15336,-05:00,Vivotek,http://136.142.166.246:80/
United Kingdom,GB,England,Stratton Saint Marga,51.583330,-1.750000,SN3 4PZ,+00:00,Axis,http://87.81.141.178:82/
United States,US,Louisiana,Metairie,29.984090,-90.152850,70001,-06:00,Axis,http://166.141.1.231:80/
Czech Republic,CZ,Hlavni Mesto Praha,Prague,50.088040,14.420760,150 00,+02:00,Axis,http://212.47.24.208:83/
Japan,JP,Tokyo,Tokyo,35.689506,139.691700,214-0021,+09:00,Panasonic,http://59.146.77.13:80/
United States,US,California,Stockton,37.961314,-121.225192,95205,-08:00,Panasonic,http://173.255.109.165:80/
Czech Republic,CZ,Plzensky Kraj,Prestice,49.572980,13.333500,334 01,+01:00,Vivotek,http://46.23.58.84:80/
Denmark,DK,Midtjylland,Viborg,56.453190,9.402010,8800,+01:00,Axis,http://188.181.247.2:81/
Japan,JP,Mie,Matsusaka,34.583000,136.533000,515-0823,+09:00,PanasonicHD,http://211.125.148.249:81/
United States,US,Georgia,Tucker,33.854550,-84.217140,30084,-05:00,Axis,http://99.42.39.171:81/
"Korea, Republic Of",KR,Seoul-T'Ukpyolsi,Seoul,37.568260,126.977830,100-101,+09:00,Hi3516,http://175.212.64.17:8000/
Bulgaria,BG,Stara Zagora,Stara Zagora,42.432780,25.641940,6000,+02:00,Axis,http://213.226.18.155:80/
Austria,AT,Oberosterreich,Steyr,48.042740,14.421270,4451,+01:00,Mobotix,http://86.56.224.110:80/
United States,US,Louisiana,Glenmora,30.976580,-92.585140,71433,-06:00,PanasonicHD,http://166.141.236.128:81/
United States,US,Kentucky,Middlesboro,36.608420,-83.716580,40965,-05:00,Vivotek,http://107.142.199.217:80/
Austria,AT,Wien,Vienna,48.208490,16.372080,1030,+01:00,Foscam,http://admin:@212.67.224.155:82/
Czech Republic,CZ,Ustecky Kraj,Steti,50.452980,14.374210,411 08,+01:00,Vivotek,http://93.99.54.185:8081/
Romania,RO,Bucuresti,Bucharest,44.432250,26.106260,060222,+02:00,Sony,http://109.102.98.184:8080/
Japan,JP,Osaka,Osaka,34.693890,135.502220,541-0041,+09:00,Mobotix,http://153.156.255.8:8082/
Czech Republic,CZ,Zlinsky Kraj,Tupesy,49.084270,17.369830,687 07,+01:00,Axis,http://94.125.220.20:88/
France,FR,Provence-Alpes-Cote,Nice,43.703130,7.266080,06833,+01:00,Panasonic,http://82.127.164.2:88/
United States,US,Pennsylvania,Philadelphia,39.952340,-75.163790,19019,-05:00,PanasonicHD,http://71.245.124.90:1024/
"Korea, Republic Of",KR,Seoul-T'Ukpyolsi,Seoul,37.568260,126.977830,100-101,+09:00,Hi3516,http://125.156.141.178:8000/
United States,US,Arizona,Tucson,32.231312,-110.949840,85721,-07:00,Axis,http://192.33.141.119:80/
France,FR,Ile-De-France,Paris,48.853410,2.348800,75008,+01:00,Axis,http://78.253.8.33:85/
United Kingdom,GB,England,Manadon,50.404140,-4.144620,PL5 3HP,+00:00,Axis,http://82.32.220.244:86/
United States,US,Arizona,Gilbert,33.352830,-111.789030,85233,-07:00,Axis,http://75.160.19.25:81/
Japan,JP,Tokyo,Tokyo,35.689506,139.691700,214-0021,+09:00,PanasonicHD,http://219.117.218.85:8080/
Japan,JP,Tokyo,Tokyo,35.689506,139.691700,214-0021,+09:00,Axis2,http://150.42.59.1:8081/
Japan,JP,Gumma,Takasaki,36.333330,139.016670,370-0811,+09:00,Mobotix,http://153.156.16.125:8082/
Italy,IT,Basilicata,Matera,40.668520,16.601580,75100,+01:00,Axis,http://194.105.53.50:8084/
Germany,DE,Saarland,Hahn,49.419670,6.900370,55483,+01:00,Mobotix,http://185.68.255.19:8081/
Argentina,AR,Distrito Federal,Colegiales,-34.573650,-58.449240,1602,-03:00,Vivotek,http://190.18.11.11:81/
Belgium,BE,Vlaams-Brabant,Linkebeek,50.767810,4.336880,1630,+01:00,Axis,http://213.219.157.15:80/
Belgium,BE,West-Vlaanderen,Oostende,51.223390,2.911850,8400,+02:00,Axis,http://193.191.134.72:80/
Chile,CL,Region Metropolitana,Santiago,-33.426280,-70.566560,8320000,-04:00,Sony,http://200.29.187.28:9000/
Slovakia,SK,Zilina,Martin,49.066510,18.923990,036 01,+01:00,Axis,http://80.242.35.37:8084/
Austria,AT,Vorarlberg,Ludesch,47.200000,9.783060,6713,+01:00,Axis,http://90.152.134.207:8081/
United States,US,Connecticut,Shelton,41.316490,-73.093160,06484,-05:00,Axis,http://107.0.231.40:8082/
"Korea, Republic Of",KR,Kyonggi-Do,Anseong,37.010830,127.270280,456-320,+09:00,Sony,http://112.186.42.17:80/
Israel,IL,Hamerkaz,Netanya,32.333610,34.857780,42140,+02:00,Mobotix,http://95.35.30.170:80/
United States,US,New York,New York City,40.714270,-74.005970,10116,-05:00,PanasonicHD,http://166.155.248.207:81/
United States,US,Indiana,Fishers,39.955590,-86.013870,46037,-05:00,PanasonicHD,http://166.153.197.251:81/
Switzerland,CH,Luzern,Luzern,47.050480,8.306350,6000,+01:00,TPLink,http://62.202.4.32:80/
United States,US,Ohio,Cleveland,41.507340,-81.604560,44106,-05:00,Mobotix,http://162.254.153.235:85/
United States,US,Wisconsin,De Pere,44.448880,-88.060380,54115,-06:00,Axis2,http://75.86.215.234:8084/
United States,US,Pennsylvania,Doylestown,40.332540,-75.116640,18901,-05:00,Axis,http://166.247.40.112:82/
United States,US,Pennsylvania,Doylestown,40.332540,-75.116640,18901,-05:00,PanasonicHD,http://166.251.118.54:81/
Norway,NO,Sogn Og Fjordane,Forde,61.452170,5.857170,6800,+01:00,Axis,http://93.89.35.2:81/
Greece,GR,Attiki,Athens,37.979450,23.716220,167 77,+02:00,Mobotix,http://79.129.70.230:80/
United States,US,Washington,Pacific,47.264550,-122.250120,98047,-08:00,Axis,http://67.53.223.42:80/
Italy,IT,Piemonte,Borgosesia,45.714470,8.279920,13011,+01:00,Mobotix,http://77.242.135.33:81/
Italy,IT,Lombardia,Milan,45.464270,9.189510,20131,+01:00,TPLink,http://79.9.105.6:1024/
Spain,ES,Catalonia,Sant Joan Despi,41.366670,2.066670,08970,+01:00,Vivotek,http://80.32.136.246:8083/
South Africa,ZA,Western Cape,Cape Town,-33.925840,18.423220,8160,+02:00,Mobotix,http://196.21.94.4:80/
Austria,AT,Wien,Vienna,48.208490,16.372080,1010,+01:00,PanasonicHD,http://178.189.11.182:80/
Italy,IT,Veneto,Padova,45.415190,11.881810,35143,+01:00,Mobotix,http://81.174.32.178:80/
United States,US,New York,New York City,40.714270,-74.005970,10116,-05:00,PanasonicHD,http://166.159.46.173:81/
United States,US,California,La Jolla,32.876100,-117.231800,92093,-08:00,Axis,http://137.110.165.30:80/
Germany,DE,Bayern,Munich,48.137430,11.575490,80331,+01:00,Axis,http://80.147.94.183:82/
United States,US,New York,New York City,40.714270,-74.005970,10116,-05:00,Mobotix,http://107.144.24.100:88/
"Korea, Republic Of",KR,Cholla-Bukto,Koch'Ang,35.433330,126.700000,585-809,+09:00,Hi3516,http://175.202.69.13:8000/
United States,US,Georgia,Atlanta,33.749000,-84.387980,30301,-05:00,PanasonicHD,http://173.165.186.58:81/
United States,US,Wisconsin,Sheboygan,43.750830,-87.714530,53081,-06:00,Axis,http://162.230.128.69:80/
Italy,IT,Basilicata,Matera,40.668520,16.601580,75100,+01:00,Axis,http://194.105.53.50:8082/
United States,US,Pennsylvania,East York,39.973710,-76.686360,17402,-05:00,Sony-CS3,http://208.67.143.22:80/
Romania,RO,Bucuresti,Bucharest,44.432250,26.106260,060222,+02:00,Mobotix,http://37.156.71.252:80/
Czech Republic,CZ,Jihomoravsky Kraj,Brno,49.195220,16.607960,628 00,+01:00,Vivotek,http://212.4.152.106:8080/
France,FR,Champagne-Ardenne,Chalons-En-Champagne,48.953930,4.367240,51904,+01:00,Axis,http://78.225.73.211:9000/
South Africa,ZA,Gauteng,Pretoria,-25.744860,28.187830,0183,+02:00,Vivotek,http://41.0.215.214:8082/
Italy,IT,Veneto,Padova,45.415190,11.881810,35143,+01:00,Mobotix,http://81.174.32.178:82/
United States,US,Florida,Daytona Beach Shores,29.176090,-80.982830,32116,-05:00,PanasonicHD,http://65.34.28.98:50001/
United States,US,New York,Madison,42.900833,-75.515278,13402,-05:00,Vivotek,http://24.103.162.83:80/
Germany,DE,Berlin,Hansaviertel,52.518530,13.341780,10555,+01:00,Axis,http://130.149.32.37:80/
Latvia,LV,Riga,Riga,56.946000,24.105890,1002,+02:00,Mobotix,http://80.232.164.37:86/
United Kingdom,GB,England,Preesall,53.918200,-2.966330,FY6 0NW,+00:00,Axis,http://217.41.42.231:1024/
Italy,IT,Lombardia,San Colombano Al Lam,45.184070,9.486760,20070,+01:00,Mobotix,http://78.134.4.205:80/
Austria,AT,Karnten,Klagenfurt Am Woerth,46.624720,14.305280,9201,+01:00,Axis,http://91.113.129.221:80/
Germany,DE,Mecklenburg-Vorpomme,Stralsund,54.309110,13.081800,18435,+01:00,Axis,http://178.15.51.243:80/
United States,US,Illinois,Saint Charles,41.914190,-88.308690,60174,-06:00,Vivotek,http://72.54.38.162:80/
United States,US,Kentucky,Lexington-Fayette,38.049800,-84.458550,40505,-05:00,Axis,http://64.191.148.57:80/
United States,US,New York,Rome,43.212850,-75.455730,13440,-05:00,Vivotek,http://24.97.120.190:80/
Canada,CA,Quebec,Montreal,45.508840,-73.587810,H1A 0A1,-05:00,PanasonicHD,http://184.151.45.56:80/
Germany,DE,Berlin,Berlin,52.524370,13.410530,10587,+02:00,Axis,http://130.149.32.46:80/
Greece,GR,Attiki,Athens,37.979450,23.716220,12210,+02:00,Axis,http://195.130.108.4:81/
Czech Republic,CZ,Hlavni Mesto Praha,Prague,50.088040,14.420760,155 00,+01:00,Vivotek,http://91.245.28.38:89/
United States,US,New York,Albany,42.652580,-73.756230,12201,-05:00,Axis,http://166.141.177.37:80/
Serbia,RS,Vojvodina,Zrenjanin,45.383610,20.381940,23101,+01:00,Vivotek,http://109.94.224.254:80/
Viet Nam,VN,Binh Dinh,Nha Trang,12.250000,109.183330,-,+07:00,Sony,http://117.3.67.76:8081/
Italy,IT,Piemonte,Ceva,44.382530,8.025540,12073,+01:00,Vivotek,http://176.65.89.72:80/
Germany,DE,Niedersachsen,Meppen,52.690640,7.290970,49716,+01:00,Hi3516,http://46.227.95.55:80/
Austria,AT,Vorarlberg,Dornbirn,47.416670,9.733060,6850,+01:00,Axis,http://80.123.207.59:8080/
United States,US,Wisconsin,Milwaukee,43.039144,-87.933397,53233,-06:00,Axis,http://192.206.48.49:80/
Japan,JP,Fukuoka,Fukuoka,33.583000,130.400000,812-0045,+09:00,Panasonic,http://203.135.192.190:8080/
Austria,AT,Wien,Vienna,48.208490,16.372080,1010,+01:00,Axis,http://80.123.111.53:80/
Italy,IT,Friuli-Venezia Giuli,Trieste,45.648610,13.780000,34127,+01:00,Mobotix,http://140.105.156.15:80/
United States,US,Massachusetts,Brookline,42.331760,-71.121160,02445,-05:00,Sony,http://216.163.220.143:80/
Czech Republic,CZ,Vysocina Kraj,Krizova,49.688410,15.852070,582 66,+01:00,Axis,http://91.245.30.16:5000/
United States,US,Michigan,Freeland,43.525030,-84.122760,48623,-05:00,PanasonicHD,http://71.13.92.230:81/
Japan,JP,Tokyo,Tokyo,35.689506,139.691700,141-0031,+09:00,Panasonic,http://61.8.83.214:80/
United States,US,Colorado,Denver,39.739150,-104.984700,80002,-07:00,Vivotek,http://68.169.168.178:80/
Russian Federation,RU,Altaisky Krai,Barnaul,53.360560,83.763610,656008,+06:00,Hi3516,http://78.109.137.177:81/
United States,US,Michigan,Grand Rapids,42.963360,-85.668090,49501,-04:00,Axis,http://148.61.107.211:80/
Japan,JP,Tokyo,Tokyo,35.689506,139.691700,101-0047,+09:00,Panasonic,http://202.87.238.166:80/
France,FR,Bretagne,Vezin-Le-Coquet,48.118570,-1.754660,35746,+01:00,Vivotek,http://80.13.225.225:80/
France,FR,Nord-Pas-De-Calais,Le Touquet-Paris-Pla,50.524320,1.585710,62520,+01:00,Sony,http://217.128.212.44:81/
Turkey,TR,Ankara,Golbasi,39.790430,32.809030,10500,+02:00,Defeway,http://85.105.122.170:60001/
Czech Republic,CZ,Hlavni Mesto Praha,Prague,50.088040,14.420760,155 00,+01:00,Vivotek,http://91.245.28.38:91/
France,FR,Bretagne,Vezin-Le-Coquet,48.118570,-1.754660,35746,+01:00,Mobotix,http://80.13.225.105:8083/
Bulgaria,BG,Stara Zagora,Stara Zagora,42.432780,25.641940,6000,+02:00,Axis,http://213.226.18.156:80/
United States,US,New York,Hawthorne,41.103731,-73.796341,10532,-05:00,Axis,http://24.246.119.51:80/
Austria,AT,Tirol,Telfs,47.300000,11.066670,6410,+01:00,Mobotix,http://87.247.212.20:80/
Finland,FI,Eastern Finland,Mikkeli,61.688570,27.272270,50100,+03:00,Axis,http://79.141.146.81:80/
Spain,ES,Madrid,Mostoles,40.322340,-3.864960,28938,+01:00,Vivotek,http://2.139.183.22:84/
Japan,JP,Osaka,Osaka,34.693890,135.502220,541-0041,+09:00,PanasonicHD,http://61.115.127.35:6001/
Switzerland,CH,Solothurn,Olten,47.349990,7.903290,4600,+01:00,Axis,http://80.254.166.149:9000/
United States,US,Connecticut,Shelton,41.316490,-73.093160,06484,-05:00,Axis,http://107.0.231.40:8084/
Japan,JP,Tokyo,Tokyo,35.689506,139.691700,214-0021,+09:00,Panasonic,http://210.248.127.19:80/
Japan,JP,Tokyo,Tokyo,35.689506,139.691700,214-0021,+09:00,Panasonic,http://61.205.226.13:60001/
United Kingdom,GB,England,Hamble,50.859660,-1.324320,SO31 4FD,+00:00,Vivotek,http://81.133.153.1:8082/
Germany,DE,Schleswig-Holstein,Tangstedt,53.666670,9.850000,22889,+01:00,Mobotix,http://46.16.219.203:80/
Austria,AT,Wien,Vienna,48.208490,16.372080,1010,+01:00,Mobotix,http://195.191.253.160:80/
Italy,IT,Sardegna,Olbia,40.921370,9.485630,07026,+01:00,Mobotix,http://185.65.47.26:8080/
Denmark,DK,Midtjylland,Tranbjerg,56.090100,10.119370,8310,+01:00,PanasonicHD,http://188.182.81.42:81/
France,FR,Ile-De-France,Aubervilliers,48.916670,2.383330,92791,+01:00,Panasonic,http://193.252.54.33:88/
United States,US,California,Irvine,33.648770,-117.840720,92697,-08:00,Canon,http://128.195.201.13:80/
United States,US,Michigan,Kalamazoo,42.291710,-85.587230,49001,-04:00,Sony,http://97.92.110.114:80/
Italy,IT,Veneto,Due Carrare,45.292590,11.818410,35020,+01:00,Streamer,http://46.234.214.84:8082/
United States,US,New York,New York City,40.714270,-74.005970,10116,-05:00,PanasonicHD,http://166.141.93.252:81/
United States,US,Illinois,Urbana,40.111024,-88.197063,61801,-06:00,Axis,http://130.126.240.20:80/
United States,US,California,Apple Valley,34.500830,-117.185880,92307,-08:00,Sony,http://68.15.86.214:80/
United States,US,North Carolina,Cedar Fork,35.861111,-78.814722,27623,-05:00,Axis,http://66.57.67.108:1024/
France,FR,Ile-De-France,Saint-Denis,48.933330,2.366670,93528,+01:00,Sony,http://90.63.211.250:82/
Sweden,SE,Stockholms Lan,Stockholm,59.332580,18.064900,19587,+02:00,Axis,http://194.68.122.244:84/
Indonesia,ID,Banten,Kebon,-6.473000,105.878200,42277,+07:00,Defeway,http://36.66.126.101:9000/
United States,US,Tennessee,Bristol,36.595110,-82.188740,37620,-05:00,Vivotek,http://96.38.64.29:8888/
Germany,DE,Bayern,Nuremberg,49.447780,11.068330,90455,+01:00,Axis,http://62.157.163.2:81/
United States,US,California,Riverside,33.972300,-117.347400,92521,-08:00,Canon,http://138.23.53.46:80/
Japan,JP,Tokyo,Tokyo,35.689506,139.691700,214-0021,+09:00,PanasonicHD,http://61.206.12.231:80/
United Kingdom,GB,England,London,51.508530,-0.125740,WC2N 5RJ,+00:00,Axis,http://213.120.145.9:80/
Austria,AT,Wien,Vienna,48.208490,16.372080,1030,+01:00,Foscam,http://admin:@212.67.224.155:88/
Germany,DE,Thuringen,Waltershausen,50.898270,10.557910,99880,+01:00,Axis,http://194.25.112.147:8001/
United States,US,New York,New York City,40.714270,-74.005970,10116,-05:00,PanasonicHD,http://166.155.248.191:81/
Italy,IT,Lazio,Riano,42.100120,12.505680,00060,+01:00,Mobotix,http://79.8.228.36:80/
Austria,AT,Tirol,Sankt Anton Am Arlbe,47.127500,10.263720,6580,+01:00,Mobotix,http://194.208.52.27:80/
Romania,RO,Timis,Timisoara,45.749440,21.227220,300980,+02:00,Vivotek,http://86.122.139.211:80/
Thailand,TH,Krung Thep,Bangkok,13.750000,100.516670,10200,+07:00,PanasonicHD,http://1.179.183.202:89/
Canada,CA,Ontario,Brampton,43.683410,-79.766330,L6P 0A1,-04:00,Axis,http://192.82.150.11:8083/
Sweden,SE,Stockholms Lan,Stockholm,59.332580,18.064900,19587,+01:00,Axis,http://78.79.196.15:82/
Turkey,TR,Igdir,Igdir,39.923710,44.045000,14200,+02:00,Defeway,http://78.187.175.60:60001/
Japan,JP,Osaka,Toyonaka,34.783000,135.467000,560-0015,+09:00,PanasonicHD,http://219.121.8.22:50001/
United States,US,Virginia,Virginia Beach,36.852930,-75.977980,23450,-05:00,PanasonicHD,http://166.251.210.237:81/
Slovakia,SK,Zilina,Martin,49.066510,18.923990,036 01,+01:00,Axis,http://80.242.35.37:8083/
Bulgaria,BG,Pernik,Pernik,42.600000,23.033330,2300,+02:00,Vivotek,http://85.187.13.38:80/
United States,US,Utah,Logan,41.746450,-111.808870,84322,-07:00,Sony,http://129.123.91.233:80/
United States,US,Tennessee,Bristol,36.595110,-82.188740,37620,-05:00,Vivotek,http://96.38.64.28:8080/
Japan,JP,Tokyo,Tokyo,35.689506,139.691700,214-0021,+09:00,Axis,http://110.5.60.250:8081/
United States,US,New York,Hicksville,40.764130,-73.518970,11801,-05:00,Panasonic,http://24.89.168.186:8082/
United States,US,Pennsylvania,Doylestown,40.332540,-75.116640,18901,-05:00,Axis,http://166.247.40.1:81/
France,FR,Provence-Alpes-Cote,Aubagne,43.292760,5.570670,13785,+01:00,Vivotek,http://82.127.254.64:8080/
Bulgaria,BG,Pernik,Pernik,42.600000,23.033330,2300,+02:00,Vivotek,http://85.187.13.38:8080/
Japan,JP,Yamanashi,Hokuto,35.783000,138.433000,408-0201,+09:00,Canon,http://61.193.131.11:80/
Japan,JP,Tokyo,Tokyo,35.689506,139.691700,214-0021,+09:00,PanasonicHD,http://124.247.184.21:80/
United States,US,Florida,Miami Beach,25.790650,-80.130050,33109,-04:00,Axis,http://72.45.34.209:80/
Denmark,DK,Syddanmark,Aabenraa,55.044340,9.417410,6200,+01:00,Hi3516,http://46.32.60.253:83/
United States,US,New York,New York City,40.714270,-74.005970,10116,-05:00,PanasonicHD,http://166.159.46.170:81/
Switzerland,CH,Zurich,Bubikon,47.266980,8.817900,8608,+01:00,Sony,http://46.14.251.37:2000/
South Africa,ZA,Western Cape,Cape Town,-33.925840,18.423220,8160,+02:00,Mobotix,http://196.21.94.3:3000/
France,FR,Pays De La Loire,Saint-Herblain,47.217650,-1.648410,44829,+01:00,Mobotix,http://80.11.59.230:80/
United States,US,Pennsylvania,Doylestown,40.332540,-75.116640,18901,-05:00,Bosch,http://166.130.157.186:80/
Switzerland,CH,Ticino,Bellinzona,46.192780,9.017030,6506,+01:00,Mobotix,http://217.11.41.46:80/
Turkey,TR,Izmir,Kemalpasa,38.426210,27.417310,10715,+02:00,Defeway,http://81.214.110.147:60001/
United States,US,Pennsylvania,Doylestown,40.332540,-75.116640,18901,-05:00,Axis,http://166.247.40.112:81/
United States,US,Washington,Seattle,47.663904,-122.291954,98105,-08:00,Sony,http://128.208.103.23:80/
Sweden,SE,Vasterbottens Lan,Vilhelmina,64.626840,16.656280,91299,+02:00,Axis,http://81.8.160.235:80/
Egypt,EG,Al Jizah,Al Jizah,30.008080,31.210930,-,+02:00,Defeway,http://41.38.3.80:80/
Austria,AT,Wien,Vienna,48.208490,16.372080,1010,+01:00,Axis,http://188.20.219.214:81/
United States,US,Pennsylvania,Doylestown,40.332540,-75.116640,18901,-05:00,Axis,http://166.247.40.1:82/
United States,US,Texas,Mccamey,31.135980,-102.224300,79752,-07:00,Axis,http://75.41.146.186:83/
United States,US,California,La Jolla,32.876100,-117.231800,92093,-08:00,Axis,http://137.110.165.15:80/
France,FR,Alsace,Strasbourg,48.583420,7.742960,67084,+02:00,Axis,http://130.79.48.20:80/
"Taiwan, Province Of",TW,T'Ai-Wan,Taipei,25.047760,121.531850,10048,+08:00,Axis,http://118.163.187.90:8081/
United States,US,Alabama,Huntsville,34.730370,-86.586100,35801,-06:00,Axis,http://74.189.206.18:80/
Ukraine,UA,L'Vivs'Ka Oblast',L'Viv,49.838260,24.023240,39721,+02:00,Sony,http://185.17.127.196:8001/
United States,US,Pennsylvania,Doylestown,40.332540,-75.116640,18901,-05:00,PanasonicHD,http://166.251.118.54:82/
United States,US,California,Olympic Valley,39.196310,-120.233560,96146,-08:00,Linksys,http://71.80.215.186:1024/
United States,US,Ohio,Huron,41.395050,-82.555170,44839,-05:00,Sony,http://24.52.119.134:8080/
United States,US,New York,New York City,40.714270,-74.005970,10116,-05:00,Axis,http://72.89.161.77:8000/
Italy,IT,Emilia-Romagna,Fidenza,44.863960,10.066680,43036,+01:00,Vivotek,http://185.63.13.82:8081/
Liechtenstein,LI,Schaan,Schaan,47.164980,9.508670,9494,+01:00,Mobotix,http://80.248.194.166:9000/
Czech Republic,CZ,Vysocina Kraj,Dobronin,49.478330,15.649920,588 12,+01:00,Axis,http://91.245.26.4:82/
Italy,IT,Piemonte,San Mauro Torinese,45.105850,7.754520,10099,+01:00,Mobotix,http://213.82.86.122:80/
France,FR,Bourgogne,Sance,46.339260,4.830490,71000,+01:00,Sony,http://82.127.25.108:9094/
United States,US,California,Los Angeles,34.052230,-118.243680,90001,-08:00,WebcamXP,http://104.177.153.145:8080/
Poland,PL,Dolnoslaskie,Wroclaw,51.100000,17.033330,54-622,+02:00,Axis,http://78.9.31.140:80/
Japan,JP,Hokkaido,Sapporo,43.067000,141.350000,988-0807,+09:00,Panasonic,http://180.43.40.161:80/
Japan,JP,Tokyo,Tokyo,35.689506,139.691700,214-0021,+09:00,PanasonicHD,http://153.124.168.62:8080/
Czech Republic,CZ,Stredocesky Kraj,Novy Knin,49.788000,14.293550,262 03,+01:00,Axis,http://77.240.103.97:80/
Romania,RO,Bucuresti,Bucharest,44.432250,26.106260,060222,+02:00,Streamer,http://95.77.96.44:8083/
Italy,IT,Lombardia,Grassobbio,45.656880,9.725660,24050,+01:00,Axis,http://89.190.162.243:8080/
Serbia,RS,Central Serbia,Belgrade,44.804010,20.465130,11118,+01:00,WebcamXP,http://109.206.96.230:8080/
Germany,DE,Baden-Wurttemberg,Rammingen,48.518140,10.171970,89192,+01:00,Mobotix,http://217.92.51.38:8080/
Japan,JP,Saga,Karatsu,33.450000,129.967000,847-0841,+09:00,Canon,http://61.7.34.17:80/
United Kingdom,GB,England,Nottingham,52.953600,-1.150470,NG1 2DR,+00:00,Axis,http://81.149.36.95:8083/
Austria,AT,Wien,Vienna,48.208490,16.372080,1010,+01:00,Axis,http://188.21.88.74:8080/
United States,US,North Carolina,Wilkesboro,36.138184,-81.157912,28697,-04:00,PanasonicHD,http://137.119.104.5:81/
Sweden,SE,Norrbottens Lan,Kiruna,67.855720,20.225130,98185,+02:00,Axis,http://193.45.228.92:80/
Italy,IT,Campania,Solofra,40.829510,14.841940,83029,+01:00,Foscam,http://admin:@134.90.231.52:81/
Japan,JP,Okayama,Okayama,34.650000,133.917000,708-0814,+09:00,Panasonic,http://202.142.12.40:80/
United States,US,Florida,Groveland,28.558050,-81.851190,34736,-05:00,Axis,http://65.40.15.131:91/
"Korea, Republic Of",KR,Kyonggi-Do,Goyang,37.656390,126.835000,412-812,+09:00,Hi3516,http://112.161.15.14:8000/
France,FR,Ile-De-France,Boulogne-Billancourt,48.833330,2.250000,92659,+01:00,DLink-DCS-932,http://77.150.192.39:88/
United States,US,Mississippi,Gulfport,30.367420,-89.092820,39501,-06:00,PanasonicHD,http://166.155.120.83:81/
Japan,JP,Tokyo,Tokyo,35.689506,139.691700,214-0021,+09:00,Panasonic,http://221.118.193.12:8080/
Italy,IT,Lazio,Ripi,41.612220,13.425800,03027,+01:00,Bosch,http://95.169.71.161:8001/
India,IN,Andhra Pradesh,Hyderabad,17.375280,78.474440,500018,+05:30,PanasonicHD,http://183.82.102.243:89/
United States,US,New Jersey,Mount Laurel,39.947820,-74.911680,08054,-05:00,Axis,http://96.66.248.34:81/
"Korea, Republic Of",KR,Seoul-T'Ukpyolsi,Seoul,37.568260,126.977830,100-101,+09:00,Hi3516,http://112.166.202.15:8000/
Spain,ES,Canarias,La Laguna,28.485300,-16.320140,38200,+01:00,Vivotek,http://161.72.135.23:8080/
United States,US,California,Rancho Cucamonga,34.106400,-117.593110,91701,-08:00,Panasonic,http://166.157.232.1:80/
United States,US,Tennessee,Germantown,35.086760,-89.810090,38138,-06:00,Axis,http://99.105.116.242:1024/
United States,US,California,Rancho Cucamonga,34.106400,-117.593110,91701,-08:00,Mobotix,http://166.149.37.221:5000/
Japan,JP,Saga,Karatsu,33.450000,129.967000,847-0841,+09:00,Canon,http://61.7.34.28:80/
Switzerland,CH,Bern,Biel,47.132400,7.244110,2500,+01:00,Axis,http://212.60.62.51:8080/
United States,US,Texas,Mccamey,31.135980,-102.224300,79752,-07:00,Axis,http://75.41.146.186:81/
Switzerland,CH,Vaud,Chexbres,46.482080,6.778050,1071,+01:00,Axis,http://213.3.36.154:8080/
France,FR,Pays De La Loire,Saint-Herblain,47.217650,-1.648410,44829,+01:00,Mobotix,http://80.11.59.230:8080/
United States,US,Louisiana,Monroe,32.526540,-92.107140,71201,-06:00,Axis,http://207.118.17.26:80/
United States,US,Mississippi,Gulfport,30.367420,-89.092820,39501,-06:00,PanasonicHD,http://166.155.120.76:81/
United States,US,Ohio,Sylvania,41.718940,-83.712990,43560,-05:00,PanasonicHD,http://24.56.66.250:81/
United States,US,New York,New York City,40.714270,-74.005970,10116,-05:00,PanasonicHD,http://166.155.248.191:82/
United States,US,Ohio,Dayton,39.758950,-84.191610,45390,-05:00,Vivotek,http://97.89.69.243:8080/
United States,US,Alaska,Fairbanks,64.837780,-147.716390,99701,-08:00,Axis,http://209.165.153.2:8081/
United Kingdom,GB,England,Stratton Saint Marga,51.583330,-1.750000,SN3 4PZ,+00:00,Axis,http://87.81.141.178:91/
United States,US,Texas,Alpine,30.358490,-103.661010,79830,-06:00,PanasonicHD,http://166.165.206.245:8081/
Czech Republic,CZ,Liberecky Kraj,Benecko,50.666330,15.548160,512 37,+01:00,Vivotek,http://91.218.189.135:80/
Canada,CA,Quebec,Chicoutimi,48.419630,-71.063690,G7B 3N8,-04:00,Axis,http://199.91.204.42:8080/
United States,US,Minnesota,Edina,44.889690,-93.349950,55343,-05:00,Panasonic,http://75.146.47.252:80/
Denmark,DK,Midtjylland,Odder,55.973130,10.153000,8300,+01:00,Panasonic,http://85.191.123.34:8082/
Croatia,HR,Grad Zagreb,Zagreb,45.814440,15.977980,10000,+02:00,Axis,http://213.147.126.111:80/
Austria,AT,Karnten,Villach,46.610280,13.855830,9587,+01:00,Axis,http://62.68.195.20:80/
United Kingdom,GB,England,Eight Ash Green,51.895870,0.822800,CO6 3HW,+00:00,Mobotix,http://213.123.205.76:80/
United States,US,California,Rancho Cucamonga,34.106400,-117.593110,91701,-08:00,Axis,http://166.165.35.33:80/
Czech Republic,CZ,Moravskoslezsky Kraj,Brumovice,50.015300,17.749580,747 71,+01:00,Vivotek,http://79.142.145.250:80/
United States,US,Pennsylvania,Doylestown,40.332540,-75.116640,18901,-05:00,Bosch,http://166.130.157.184:9000/
United States,US,Maryland,Westminster,39.555120,-76.990560,21157,-04:00,Sony,http://64.69.128.71:80/
Turkey,TR,Izmir,Torbali,38.151900,27.362230,07900,+02:00,Defeway,http://81.215.228.77:60001/
United States,US,Virginia,Virginia Beach,36.852930,-75.977980,23450,-05:00,PanasonicHD,http://166.251.210.241:81/
"Taiwan, Province Of",TW,T'Ai-Wan,Tainan,22.990830,120.213330,701,+08:00,Vivotek,http://211.21.14.1:8080/
Japan,JP,Tokyo,Tokyo,35.689506,139.691700,214-0021,+09:00,Panasonic,http://219.117.218.85:80/
United States,US,Indiana,Fishers,39.955590,-86.013870,46037,-05:00,PanasonicHD,http://166.153.197.251:82/
United Kingdom,GB,England,Stratton Saint Marga,51.583330,-1.750000,SN3 4PZ,+00:00,Axis,http://87.81.141.178:81/
Sweden,SE,Vasterbottens Lan,Mala,65.185010,18.742430,93070,+01:00,Axis,http://80.88.123.97:80/
Ireland,IE,Galway,Galway,53.271940,-9.048890,D17,+00:00,Panasonic,http://86.47.125.11:86/
Japan,JP,Miyazaki,Saito,32.117000,131.400000,881-0111,+09:00,PanasonicHD,http://118.21.109.43:50000/
Sweden,SE,Stockholms Lan,Stockholm,59.332580,18.064900,19587,+01:00,Axis,http://217.73.103.60:80/
Italy,IT,Veneto,Veggiano,45.447190,11.712800,35030,+01:00,Axis,http://213.187.17.124:80/
Czech Republic,CZ,Liberecky Kraj,Benecko,50.666330,15.548160,512 37,+01:00,Vivotek,http://91.218.189.238:8080/
Italy,IT,Puglia,Canosa Di Puglia,41.219630,16.067470,76012,+01:00,Bosch,http://185.72.41.128:90/
Italy,IT,Veneto,Veggiano,45.447190,11.712800,35030,+01:00,Axis,http://78.134.63.45:8080/
United States,US,Texas,Mccamey,31.135980,-102.224300,79752,-07:00,Axis,http://75.41.146.186:82/
Czech Republic,CZ,Hlavni Mesto Praha,Prague,50.088040,14.420760,150 00,+01:00,Bosch,http://160.218.191.77:8081/
Japan,JP,Tokyo,Tokyo,35.689506,139.691700,214-0021,+09:00,PanasonicHD,http://219.117.212.220:6001/
Norway,NO,Rogaland,Kleppe,58.773030,5.633290,4358,+01:00,Axis,http://92.221.146.36:84/
Netherlands,NL,Zeeland,Renesse,51.732500,3.775000,4325,+01:00,Mobotix,http://217.63.79.153:8081/
Japan,JP,Osaka,Osaka,34.693890,135.502220,541-0041,+09:00,Panasonic,http://60.33.230.11:80/
Italy,IT,Lazio,Rome,41.894740,12.483900,00166,+01:00,PanasonicHD,http://80.22.246.227:8083/
Austria,AT,Tirol,Innsbruck,47.262660,11.394540,6020,+01:00,Mobotix,http://88.116.12.230:82/
Tunisia,TN,Tunis,La Mohammedia,36.674460,10.156330,1146,+01:00,Linksys,http://41.228.21.93:1024/
Poland,PL,Mazowieckie,Warsaw,52.229770,21.011780,05-077,+02:00,Sony,http://95.215.24.198:80/
United States,US,Pennsylvania,Doylestown,40.332540,-75.116640,18901,-05:00,PanasonicHD,http://166.241.55.35:81/
Czech Republic,CZ,Plzensky Kraj,Susice,49.231060,13.520180,342 01,+01:00,Vivotek,http://46.23.51.32:8080/
Brazil,BR,Rio De Janeiro,Rio De Janeiro,-22.902780,-43.207500,24000-00,-03:00,Axis,http://152.92.155.15:80/
France,FR,Bourgogne,Dijon,47.316670,5.016670,92791,+02:00,Panasonic,http://80.11.28.220:86/
United States,US,Kentucky,Louisville,38.254240,-85.759410,40201,-04:00,Axis,http://74.142.49.38:8001/
Mexico,MX,Baja California,Tijuana,32.533330,-117.016670,22703,-07:00,Axis,http://200.77.213.65:80/
"Taiwan, Province Of",TW,T'Ai-Wan,Taipei,25.047760,121.531850,100,+08:00,Hi3516,http://220.133.145.54:8081/
Bulgaria,BG,Pernik,Pernik,42.600000,23.033330,2300,+02:00,Vivotek,http://85.187.13.35:8000/
United States,US,Pennsylvania,Doylestown,40.332540,-75.116640,18901,-05:00,PanasonicHD,http://166.241.55.24:81/
Japan,JP,Tokyo,Tokyo,35.689506,139.691700,214-0021,+09:00,PanasonicHD,http://219.127.83.130:80/
United States,US,Kansas,Marienthal,38.485800,-101.036700,67863,-06:00,Axis,http://67.64.31.9:80/
United States,US,Ohio,Athens,39.329240,-82.101260,45701,-05:00,Panasonic,http://32.215.187.242:80/
Russian Federation,RU,Novosibirsk,Novosibirsk,55.041500,82.934600,107140,+06:00,Defeway,http://188.162.3.39:80/
"Korea, Republic Of",KR,Cholla-Bukto,Changsu,35.648420,127.515230,597-805,+09:00,Hi3516,http://119.199.189.37:8000/
Italy,IT,Toscana,Castellina In Chiant,43.468240,11.287730,53011,+01:00,Defeway,http://217.112.105.156:81/
United States,US,Missouri,Jefferson City,38.576700,-92.173520,65101,-06:00,Axis,http://66.43.40.58:8081/
Latvia,LV,Riga,Riga,56.946000,24.105890,1002,+02:00,Mobotix,http://80.232.164.37:81/
"Taiwan, Province Of",TW,T'Ai-Pei,Banqiao,25.014270,121.467190,220,+08:00,Defeway,http://1.34.6.170:60001/
United States,US,Tennessee,Bristol,36.595110,-82.188740,37620,-05:00,Vivotek,http://96.38.64.29:8080/
Czech Republic,CZ,Stredocesky Kraj,Rakovnik,50.103700,13.733400,269 02,+02:00,Sony,http://78.111.125.5:80/
Japan,JP,Tokyo,Tokyo,35.689506,139.691700,214-0021,+09:00,Panasonic,http://202.245.13.80:80/
United States,US,California,Rancho Cucamonga,34.106400,-117.593110,91701,-08:00,Axis,http://166.142.23.60:80/
Italy,IT,Lazio,Rome,41.894740,12.483900,00166,+01:00,PanasonicHD,http://80.22.246.227:8082/
Italy,IT,Campania,Castello Di Cisterna,40.915110,14.406230,80036,+01:00,Mobotix,http://79.9.144.179:82/
United States,US,New York,Tivoli,42.058420,-73.909300,12583,-05:00,Axis,http://24.39.106.10:8000/
United States,US,New Jersey,Mount Laurel,39.947820,-74.911680,08054,-05:00,Axis,http://96.84.21.221:8082/
United States,US,Ohio,Cincinnati,39.162000,-84.456890,45201,-05:00,Axis,http://98.102.110.114:82/
Ukraine,UA,Kyyiv,Kiev,50.454660,30.523800,-,+03:00,Axis,http://212.90.187.253:80/
Japan,JP,Tokyo,Tokyo,35.689506,139.691700,214-0021,+09:00,PanasonicHD,http://153.124.168.61:8080/
Belgium,BE,Brussels Hoofdstedel,Brussels,50.850450,4.348780,1030,+01:00,Axis,http://81.246.24.50:8083/
Spain,ES,Madrid,Madrid,40.416500,-3.702560,28013,+01:00,Axis,http://62.87.117.187:81/
Germany,DE,Bayern,Nuremberg,49.447780,11.068330,90455,+01:00,Mobotix,http://80.149.125.229:8080/
United States,US,Iowa,Des Moines,41.600540,-93.609110,50301,-06:00,Sony,http://65.125.135.57:80/
Spain,ES,Canarias,La Laguna,28.485300,-16.320140,38200,+01:00,Vivotek,http://161.72.135.5:80/
Czech Republic,CZ,Karlovarsky Kraj,Karlovy Vary,50.232710,12.871170,360 01,+01:00,Vivotek,http://185.73.102.177:80/
Japan,JP,Hyogo,Kobe,34.690000,135.195560,650-0011,+09:00,PanasonicHD,http://183.76.170.60:8080/
Switzerland,CH,Vaud,Lausanne,46.516000,6.632820,1002,+01:00,Panasonic,http://46.14.0.34:80/
United States,US,California,Yorba Linda,33.888630,-117.813110,92885,-08:00,PanasonicHD,http://166.141.33.106:81/
Japan,JP,Tokyo,Tokyo,35.689506,139.691700,214-0021,+09:00,Panasonic,http://119.243.75.105:50004/
Hungary,HU,Budapest,Budapest,47.498010,19.039910,1132,+02:00,Axis,http://193.6.11.238:80/
Italy,IT,Puglia,Canosa Di Puglia,41.219630,16.067470,76012,+01:00,Bosch,http://185.72.41.123:90/
Turkey,TR,Gaziantep,Sahinbey,37.048360,37.343710,41600,+02:00,Defeway,http://88.247.77.253:60001/
United States,US,California,Yorba Linda,33.888630,-117.813110,92885,-08:00,PanasonicHD,http://166.155.138.72:82/
Austria,AT,Oberosterreich,Perg,48.250000,14.633330,4320,+01:00,Axis,http://77.119.245.144:8001/
"Taiwan, Province Of",TW,T'Ai-Wan,Chang-Hua,24.073270,120.562760,500,+08:00,Hi3516,http://59.127.141.56:88/
Romania,RO,Bucuresti,Bucharest,44.432250,26.106260,060222,+02:00,Mobotix,http://83.103.148.30:80/
Germany,DE,Nordrhein-Westfalen,Wahlbachsmuhle,50.947840,8.358620,57334,+01:00,Mobotix,http://87.139.194.232:8888/
Russian Federation,RU,Saint Petersburg Cit,Shushary,59.809170,30.381670,196626,+03:00,Axis,http://94.72.19.56:80/
Spain,ES,Madrid,Madrid,40.416500,-3.702560,28013,+01:00,Axis,http://62.87.117.187:83/
Slovakia,SK,Zilina,Martin,49.066510,18.923990,036 01,+01:00,Axis,http://80.242.35.37:8082/
United States,US,New York,Henrietta,43.059444,-77.614722,14467,-05:00,Canon,http://129.21.236.7:80/
Poland,PL,Slaskie,Tychy,50.137170,18.966410,43-100,+01:00,Android-IPWebcam,http://109.95.200.154:3000/
United States,US,New York,New York City,40.714080,-74.006280,10081,-05:00,Axis,http://108.41.24.124:80/
"Korea, Republic Of",KR,Kyonggi-Do,Suigen,37.291110,127.008890,440-823,+09:00,Hi3516,http://182.208.72.10:9000/
Italy,IT,Toscana,Portoferraio,42.811520,10.314620,57037,+01:00,Mobotix,http://91.214.60.198:80/
Italy,IT,Puglia,Canosa Di Puglia,41.219630,16.067470,76012,+01:00,Bosch,http://185.72.41.123:91/
Italy,IT,Lazio,Rome,41.894740,12.483900,00166,+01:00,PanasonicHD,http://80.22.246.227:8090/
Italy,IT,Lazio,Rome,41.894740,12.483900,00166,+01:00,PanasonicHD,http://80.22.246.227:8084/
United States,US,New Jersey,Mount Laurel,39.947820,-74.911680,08054,-05:00,Axis,http://73.119.210.85:8888/
Austria,AT,Oberosterreich,Nebelberg,48.628540,13.846290,4153,+01:00,Mobotix,http://62.68.197.5:80/
United States,US,Massachusetts,Boston,42.341869,-71.096851,02115,-04:00,Axis,http://129.10.161.241:80/
United States,US,New York,Elmira,42.089800,-76.807730,14901,-05:00,Axis,http://184.74.137.62:86/
Netherlands,NL,Zuid-Holland,Den Haag,52.076670,4.298610,2590,+01:00,Axis,http://31.160.161.51:8083/
Indonesia,ID,Jawa Timur,Gubengairlangga,-7.272900,112.757300,60286,+07:00,PanasonicHD,http://180.178.109.75:60001/
United States,US,Alabama,Tuscaloosa,33.216180,-87.540200,35487,-06:00,Axis,http://130.160.9.16:80/
Slovakia,SK,Bratislava,Bratislava,48.148160,17.106740,851 10,+01:00,Sony-CS3,http://85.163.88.54:10000/
Spain,ES,Andalucia,Marbella,36.515430,-4.885830,29660,+01:00,Axis,http://185.49.169.178:8083/
Japan,JP,Hokkaido,Sapporo,43.067000,141.350000,988-0807,+09:00,PanasonicHD,http://153.142.27.168:80/
Japan,JP,Okinawa,Ginowan,26.281670,127.778330,901-2206,+09:00,Panasonic,http://61.211.241.238:80/
Canada,CA,Ontario,Toronto,43.700110,-79.416300,M3B 0A3,-04:00,Axis,http://208.124.240.178:80/
Norway,NO,Oppland,Lillehammer,61.115140,10.466280,2624,+01:00,Axis,http://77.106.161.186:81/
Germany,DE,Bayern,Nuremberg,49.447780,11.068330,90455,+02:00,Axis,http://80.147.196.243:8888/
France,FR,Ile-De-France,Paris,48.853410,2.348800,75915,+01:00,Axis,http://217.128.254.187:8082/
Japan,JP,Hokkaido,Sapporo,43.067000,141.350000,988-0807,+09:00,Panasonic,http://219.101.88.114:60001/
United States,US,Georgia,Savannah,32.069593,-81.105399,31401,-04:00,Axis,http://162.17.65.122:80/
United States,US,California,Torrance,33.835850,-118.340630,90501,-08:00,PanasonicHD,http://166.153.247.102:81/
United States,US,Nevada,Las Vegas,36.174970,-115.137220,89044,-08:00,Axis,http://166.161.207.229:80/
United States,US,California,Sunnyvale,37.376099,-122.021940,94086,-07:00,Panasonic,http://192.135.76.230:80/
Italy,IT,Puglia,Canosa Di Puglia,41.219630,16.067470,76012,+01:00,Bosch,http://185.72.41.128:91/
Italy,IT,Lazio,Rome,41.894740,12.483900,00166,+01:00,PanasonicHD,http://80.22.246.227:8081/
France,FR,Ile-De-France,Saint-Denis,48.933330,2.366670,93528,+01:00,Sony,http://90.63.211.250:83/
United States,US,Iowa,Ames,42.022675,-93.642525,50011,-05:00,Panasonic,http://129.186.112.66:80/
"Taiwan, Province Of",TW,T'Ai-Wan,Taipei,25.047760,121.531850,10048,+08:00,Hi3516,http://114.34.215.46:80/
United States,US,California,Yorba Linda,33.888630,-117.813110,92885,-08:00,PanasonicHD,http://166.159.21.71:81/
United States,US,Illinois,Carbondale,37.726220,-89.222915,62901,-06:00,Canon,http://131.230.250.23:80/
Poland,PL,Mazowieckie,Warsaw,52.229770,21.011780,02-822,+01:00,Vivotek,http://77.252.240.222:80/
Tunisia,TN,Tunis,Rades,36.768060,10.275280,2041,+01:00,Axis,http://41.225.235.128:8001/
Italy,IT,Campania,Solofra,40.829510,14.841940,83029,+01:00,Foscam,http://admin:@134.90.231.52:88/
Italy,IT,Puglia,Canosa Di Puglia,41.219630,16.067470,76012,+01:00,Bosch,http://185.72.41.126:91/
-,-,-,-,0.000000,0.000000,-,-,Sony,http://185.139.48.128:88/
United States,US,Kentucky,Ivel,37.598604,-82.660383,41642,-05:00,PanasonicHD,http://208.77.125.240:81/
United States,US,California,Yorba Linda,33.888630,-117.813110,92885,-08:00,PanasonicHD,http://166.159.21.70:82/
United States,US,California,Torrance,33.835850,-118.340630,90501,-08:00,PanasonicHD,http://166.153.247.106:81/
Turkey,TR,Yalova,Kadikoy,40.620150,29.225360,71900,+02:00,Defeway,http://88.247.177.88:60001/
United States,US,North Carolina,Roxboro,36.393750,-78.982790,27573,-05:00,Axis,http://68.115.181.188:8083/
United States,US,California,San Bruno,37.625013,-122.431076,94066,-08:00,Linksys,http://24.143.248.121:80/
"Korea, Republic Of",KR,Ulsan-Gwangyoksi,Ulsan,35.537220,129.316670,680-802,+09:00,Axis,http://203.250.69.180:80/
Switzerland,CH,Ticino,Chiasso,45.832030,9.031190,6830,+01:00,Axis,http://213.3.63.34:81/
Czech Republic,CZ,Hlavni Mesto Praha,Prague,50.088040,14.420760,150 00,+01:00,Bosch,http://160.218.97.98:8080/
Japan,JP,Hiroshima,Hiroshima,34.385280,132.455280,730-0011,+09:00,Panasonic,http://218.224.125.228:81/
Spain,ES,Madrid,Madrid,40.416500,-3.702560,28013,+01:00,Axis,http://62.87.117.187:82/
United States,US,California,Torrance,33.835850,-118.340630,90501,-08:00,PanasonicHD,http://166.153.247.114:81/
United States,US,Ohio,Athens,39.329240,-82.101260,45701,-05:00,Panasonic,http://32.215.187.242:8000/
Slovakia,SK,Zilina,Zilina,49.223150,18.739410,010 03,+01:00,Streamer,http://158.193.88.246:8080/
United States,US,California,Palmdale,34.579430,-118.116460,93550,-08:00,Axis,http://68.170.44.165:80/
Austria,AT,Oberosterreich,Linz,48.306390,14.286110,4020,+01:00,Mobotix,http://93.83.210.66:80/
United States,US,North Carolina,Wilkesboro,36.138184,-81.157912,28697,-04:00,PanasonicHD,http://137.119.104.5:84/
United States,US,Florida,West Palm Beach,26.715340,-80.053370,33401,-05:00,Axis,http://108.217.87.126:8080/
United States,US,Mississippi,Gulfport,30.367420,-89.092820,39501,-06:00,PanasonicHD,http://166.155.120.69:81/
Hungary,HU,Borsod-Abauj-Zemplen,Miskolc,48.100000,20.783330,3711,+01:00,Vivotek,http://78.131.88.37:80/
Japan,JP,Hiroshima,Hiroshima,34.385280,132.455280,730-0011,+09:00,PanasonicHD,http://210.154.137.87:50000/
France,FR,Rhone-Alpes,Grenoble,45.166670,5.716670,38042,+01:00,Axis,http://147.173.216.121:80/
Japan,JP,Fukuoka,Fukuoka,33.583000,130.400000,812-0045,+09:00,Panasonic,http://110.5.3.190:80/
Japan,JP,Tokyo,Tokyo,35.689506,139.691700,100-0004,+09:00,PanasonicHD,http://222.230.107.76:80/
Japan,JP,Tokyo,Tokyo,35.689506,139.691700,214-0021,+09:00,Panasonic,http://118.21.50.204:80/
Germany,DE,Berlin,Berlin,52.524370,13.410530,10178,+02:00,Axis,http://217.91.58.189:80/
Spain,ES,Madrid,Madrid,40.416500,-3.702560,28013,+01:00,Axis,http://62.87.117.187:84/
United States,US,Massachusetts,Brighton,42.350820,-71.118420,02135,-05:00,Axis,http://128.197.128.165:80/
United States,US,Minnesota,Twin Cities,44.950000,-93.200000,55114,-06:00,Axis,http://207.67.44.50:8083/
United States,US,New York,New York City,40.714270,-74.005970,10116,-05:00,PanasonicHD,http://166.141.93.253:81/
United States,US,Virginia,Virginia Beach,36.852930,-75.977980,23450,-05:00,PanasonicHD,http://166.251.210.242:81/
United States,US,California,Yorba Linda,33.888630,-117.813110,92885,-08:00,PanasonicHD,http://166.159.21.70:81/
United States,US,Pennsylvania,Doylestown,40.332540,-75.116640,18901,-05:00,PanasonicHD,http://166.241.55.25:82/
United States,US,New York,New York City,40.714270,-74.005970,10116,-05:00,PanasonicHD,http://166.155.207.250:81/
Sweden,SE,Uppsala Lan,Saevja,59.820830,17.698990,75900,+01:00,Mobotix,http://130.238.118.246:80/
Netherlands,NL,Flevoland,Almere Stad,52.370250,5.214130,1329,+01:00,Streamer,http://85.150.92.34:8080/
Canada,CA,Ontario,Toronto,43.700110,-79.416300,M3B 0A3,-04:00,Axis,http://76.70.29.102:2080/
Iceland,IS,Hofuoborgarsvaoio,Reykjavik,64.135480,-21.895410,108,+00:00,Axis,http://193.4.245.147:80/
Netherlands,NL,Zuid-Holland,Den Haag,52.076670,4.298610,2590,+01:00,Panasonic,http://217.166.60.247:80/
Italy,IT,Puglia,Canosa Di Puglia,41.219630,16.067470,76012,+01:00,Bosch,http://185.72.41.126:90/
United States,US,California,Torrance,33.835850,-118.340630,90501,-08:00,PanasonicHD,http://166.153.247.105:81/
France,FR,Ile-De-France,Puteaux,48.883410,2.238940,92791,+01:00,Panasonic,http://80.15.116.66:84/
Spain,ES,Madrid,Madrid,40.416500,-3.702560,28013,+01:00,Axis,http://62.87.117.187:85/
Germany,DE,Bayern,Munich,48.137430,11.575490,80331,+01:00,Bosch,http://80.147.183.86:83/
Netherlands,NL,Noord-Holland,Amsterdam,52.374030,4.889690,1089,+01:00,WebcamXP,http://83.162.148.146:8080/
United States,US,Rhode Island,Coventry,41.700100,-71.682840,02816,-05:00,Axis,http://70.164.244.13:80/
Japan,JP,Tokyo,Tokyo,35.689506,139.691700,214-0021,+09:00,Axis,http://153.142.212.187:8082/
"Korea, Republic Of",KR,Inch'On-Jikhalsi,Tsche-Mul-P-Ho,37.453610,126.731670,405-865,+09:00,Hi3516,http://119.204.221.22:8000/
United States,US,New Jersey,Mount Laurel,39.947820,-74.911680,08054,-05:00,PanasonicHD,http://96.67.65.210:82/
Sweden,SE,Norrbottens Lan,Aelvsbyn,65.676240,21.001620,94299,+01:00,Axis,http://82.99.75.137:80/
United States,US,California,Torrance,33.835850,-118.340630,90501,-08:00,PanasonicHD,http://166.153.247.104:82/
Germany,DE,Hamburg,Hamburg,53.575320,10.015340,22085,+01:00,Axis,http://217.91.112.157:80/
India,IN,Andhra Pradesh,Hyderabad,17.375280,78.474440,500018,+05:30,PanasonicHD,http://183.82.102.243:85/
Japan,JP,-,-,35.614880,139.581300,-,+09:00,Panasonic,http://219.121.33.21:80/
Russian Federation,RU,Moscow City,Moscow,55.752220,37.615560,119590,+04:00,Axis,http://77.238.247.141:80/
Japan,JP,Osaka,Osaka,34.693890,135.502220,541-0041,+09:00,Sony,http://121.83.134.101:80/
Denmark,DK,Hovedstaden,Copenhagen,55.675940,12.565530,1051,+01:00,Panasonic,http://185.15.75.70:80/
Austria,AT,Vorarlberg,Lech,47.207970,10.141840,6764,+01:00,Mobotix,http://185.75.217.47:80/
United States,US,New York,New York City,40.714270,-74.005970,10116,-04:00,Axis,http://23.246.89.122:81/
Japan,JP,Tokyo,Tokyo,35.689506,139.691700,214-0021,+09:00,Canon,http://202.239.89.124:8081/
United States,US,California,San Francisco,37.774930,-122.419420,94102,-07:00,Axis,http://173.11.91.169:8090/
United States,US,Arizona,Tucson,32.231312,-110.949840,85721,-07:00,Axis,http://192.33.141.16:80/
Italy,IT,Basilicata,Picerno,40.640320,15.643260,85055,+01:00,Sony,http://185.15.170.28:8082/
United States,US,California,Torrance,33.835850,-118.340630,90501,-08:00,PanasonicHD,http://166.153.247.65:81/
United States,US,New York,New York City,40.714270,-74.005970,10116,-05:00,PanasonicHD,http://166.159.46.172:81/
United States,US,California,Rancho Cucamonga,34.106400,-117.593110,91701,-08:00,Axis,http://166.165.35.38:80/
France,FR,Pays De La Loire,Nantes,47.217250,-1.553360,44978,+01:00,Bosch,http://80.14.186.253:82/
United Kingdom,GB,England,Thornham Magna,52.294200,1.084170,IP23 8HD,+00:00,Mobotix,http://194.164.144.234:80/
United States,US,Pennsylvania,Doylestown,40.332540,-75.116640,18901,-05:00,PanasonicHD,http://166.251.130.235:81/
Sweden,SE,Vasterbottens Lan,Umea,63.828420,20.259720,90850,+02:00,Axis,http://31.208.6.151:80/
Canada,CA,Alberta,Calgary,51.050110,-114.085290,T1X 0L3,-06:00,Sony,http://184.69.198.142:80/
Italy,IT,Veneto,Padova,45.415190,11.881810,35143,+01:00,Mobotix,http://81.174.32.178:81/
United States,US,New York,Brockport,43.212878,-77.925976,14420,-05:00,Sony,http://137.21.67.250:80/
United States,US,California,Fremont,37.517979,-121.929488,94539,-07:00,Axis,http://72.52.116.28:80/
Turkey,TR,Istanbul,Esenyurt,41.033330,28.675280,16120,+02:00,Defeway,http://212.156.175.18:60001/
United States,US,Massachusetts,Concord,42.456709,-71.372695,01742,-05:00,Sony,http://199.184.125.51:80/
United States,US,Mississippi,Hattiesburg,31.329550,-89.336700,39406,-05:00,Axis,http://131.95.3.178:80/
Estonia,EE,Tartumaa,Tartu,58.380620,26.725090,-,+03:00,Axis2,http://193.40.110.163:80/
Italy,IT,Basilicata,Picerno,40.640320,15.643260,85055,+01:00,Sony,http://185.15.170.28:8090/
United States,US,Pennsylvania,Doylestown,40.332540,-75.116640,18901,-05:00,PanasonicHD,http://166.241.55.32:82/
United States,US,North Dakota,Jamestown,46.909551,-98.704469,58401,-06:00,Axis,http://64.77.205.67:80/
Romania,RO,Bucuresti,Bucharest,44.432250,26.106260,060222,+02:00,Mobotix,http://92.87.22.195:80/
United States,US,Massachusetts,Worcester,42.275816,-71.820142,01609,-05:00,Axis,http://130.215.23.10:80/
Austria,AT,Wien,Vienna,48.208490,16.372080,1010,+01:00,Axis,http://80.122.182.6:8001/
United States,US,Virginia,Virginia Beach,36.852930,-75.977980,23450,-05:00,PanasonicHD,http://166.251.210.235:81/
United States,US,Pennsylvania,Pittsburgh,40.424880,-79.980960,15203,-05:00,Sony-CS3,http://208.103.125.149:80/
United States,US,Illinois,Algonquin,42.165580,-88.294250,60102,-06:00,Bosch,http://173.84.33.106:80/
"Korea, Republic Of",KR,Kyonggi-Do,Suwon,37.266667,127.016667,442-844,+09:00,Hi3516,http://45.112.164.15:8000/
United States,US,California,Torrance,33.835850,-118.340630,90501,-08:00,PanasonicHD,http://166.153.247.103:81/
Slovenia,SI,Ljubljana,Ljubljana,46.051080,14.505130,1000,+02:00,TPLink,http://193.77.49.122:80/
United States,US,California,San Jose,37.339390,-121.894960,95101,-07:00,Panasonic,http://50.244.219.100:80/
United States,US,California,Torrance,33.835850,-118.340630,90501,-08:00,PanasonicHD,http://166.153.247.70:81/
United States,US,Texas,Beaumont,30.086050,-94.101850,77657,-06:00,Axis,http://166.166.212.13:80/
United States,US,New York,New York City,40.714270,-74.005970,10116,-05:00,PanasonicHD,http://166.141.93.249:81/
United States,US,Hawaii,Hilo,19.729720,-155.090000,96720,-10:00,Axis,http://128.171.203.104:80/
United States,US,North Carolina,Greenville,35.612660,-77.366350,27833,-04:00,Sony,http://150.216.6.137:80/
Ukraine,UA,Donets'Ka Oblast',Donets'K,48.023000,37.802240,-,+03:00,NetCam,http://176.121.197.220:80/
Finland,FI,Eastern Finland,Mikkeli,61.688570,27.272270,50100,+03:00,Axis,http://79.141.146.84:80/
Romania,RO,Constanta,Constanta,44.183330,28.650000,900900,+02:00,Mobotix,http://86.122.53.98:82/
Japan,JP,Gifu,Gifu,35.417000,136.767000,500-8176,+09:00,PanasonicHD,http://183.77.127.87:8080/
New Zealand,NZ,Auckland,Pakuranga,-36.883330,174.916670,2145,+13:00,PanasonicHD,http://203.97.52.41:89/
Colombia,CO,Valle Del Cauca,Restrepo,3.822030,-76.522420,-,-05:00,DLink-DCS-932,http://186.147.163.246:84/
United States,US,Pennsylvania,Blairsville,40.431180,-79.260870,15717,-05:00,WebcamXP,http://75.149.26.30:1024/
Japan,JP,Kanagawa,Yokohama,35.444170,139.638060,231-0021,+09:00,PanasonicHD,http://220.98.195.44:80/
Norway,NO,Telemark,Skien,59.209620,9.608970,3792,+02:00,Axis,http://159.130.70.206:80/
Japan,JP,Tokyo,Tokyo,35.689506,139.691700,214-0021,+09:00,Panasonic,http://61.194.31.179:80/
Colombia,CO,Cundinamarca,Cota,4.809380,-74.098000,-,-05:00,Panasonic,http://190.85.112.10:8001/
United States,US,Indiana,West Lafayette,40.368891,-86.877431,47907,-04:00,Axis2,http://128.46.190.179:80/
Romania,RO,Bihor,Oradea,47.066670,21.933330,410730,+02:00,Mobotix,http://82.79.74.61:8080/
Norway,NO,Oslo,Oslo,59.912730,10.746090,0212,+01:00,Vivotek,http://193.214.75.166:8080/
United States,US,Illinois,Apple River,42.476854,-90.108145,61001,-06:00,Vivotek,http://74.112.140.118:8080/
United States,US,Virginia,Virginia Beach,36.852930,-75.977980,23450,-05:00,PanasonicHD,http://166.251.210.238:81/
United States,US,Kentucky,Louisville,38.254240,-85.759410,40201,-05:00,Axis,http://74.142.179.46:81/
Sweden,SE,Vasterbottens Lan,Vilhelmina,64.626840,16.656280,91292,+01:00,Axis,http://81.8.239.195:80/
United States,US,Washington,Seattle,47.606210,-122.332070,98101,-07:00,Axis,http://72.43.43.22:8082/
Japan,JP,Tokyo,Tokyo,35.689506,139.691700,214-0021,+09:00,Axis,http://61.44.104.86:80/
United States,US,North Dakota,New England,46.540000,-102.865556,58647,-06:00,Axis,http://173.14.186.93:80/
Ireland,IE,Meath,Navan,53.652780,-6.681390,-,+01:00,Axis,http://86.47.88.163:80/
United States,US,New York,Hicksville,40.768430,-73.525130,11801,-05:00,Bosch,http://47.21.215.238:80/
United States,US,Hawaii,Honolulu,21.313120,-157.822133,96822,-10:00,Axis,http://132.160.100.57:80/
